$IIMWV,293,R,13.2,M,A*18
!AIVDM,1,1,,A,13e0ld002@K7UniP`K5TJSV8083=,0*4E
$GPGLL,5448.6062,S,06818.0152,W,220505,A*2B
$IIXDR,C,0.0,C,ID1,H,0,P,ID2,P,0.000,B,ID3*49
$GPHDT,290.1,T*3F
!AIVDM,1,1,,A,1DW`ej001bK?MDqP=N?0`0N<0000,0*3A
$GPVTG,228.3,T,215.8,M,0.0,N,0.0,K*4B
$GPZDA,220506,14,02,2020,00,00*4C
$GPGGA,220506,5448.6062,S,06818.0152,W,1,12,1.5,31,M,,M,,*75
$IIMWV,295,R,13.8,M,A*14
$GPGLL,5448.6062,S,06818.0152,W,220506,A*28
$IIXDR,C,0.0,C,ID1,H,0,P,ID2,P,0.000,B,ID3*49
$GPHDT,290.1,T*3F
!AIVDM,1,1,,A,1:kJak?P?w<tSF0l4Q@>4?wp0`41,0*62
!AIVDM,1,1,,B,3:MBuP0219s7l;qP`2p4ACR<2000,0*46
$GPVTG,224.8,T,212.3,M,0.0,N,0.0,K*40
$GPZDA,220507,14,02,2020,00,00*4D
$GPGGA,220507,5448.6062,S,06818.0152,W,1,12,1.5,31,M,,M,,*74
$IIMWV,295,R,13.8,M,A*14
$GPGLL,5448.6062,S,06818.0152,W,220507,A*29
$IIXDR,C,0.0,C,ID1,H,0,P,ID2,P,0.000,B,ID3*49
$GPHDT,290.1,T*3F
!AIVDM,1,1,,A,1:LR1ohP0Us:eHaPUI6a6wv>2@4T,0*35
!AIVDM,1,1,,B,15A8RL00@0K7GLQP`i7=Tq482l0?,0*3B
!AIVDM,1,1,,B,Dh6cnnj6H@fr9P@fp00@fp0,2*47
!AIVDM,1,1,,B,1EA8RL00@0K7GLQP`i7=Tq482000,0*18
$GPVTG,228.0,T,215.5,M,0.0,N,0.0,K*45
$GPZDA,220508,14,02,2020,00,00*42
!AIVDM,1,1,,A,1:LQdQPP00K7EimP`ok00?v@2L0?,0*74
$GPGGA,220508,5448.6062,S,06818.0152,W,1,12,1.5,31,M,,M,,*7B
$IIMWV,299,R,13.7,M,A*17
$GPGLL,5448.6062,S,06818.0152,W,220508,A*26
$IIXDR,C,0.0,C,ID1,H,0,P,ID2,P,0.000,B,ID3*49
$GPHDT,290.1,T*3F
$GPVTG,233.0,T,220.5,M,0.0,N,0.0,K*49
$GPZDA,220509,14,02,2020,00,00*43
$GPGGA,220509,5448.6062,S,06818.0152,W,1,12,1.5,31,M,,M,,*7A
$IIMWV,297,R,13.6,M,A*18
$GPGLL,5448.6062,S,06818.0152,W,220509,A*27
$IIXDR,C,0.0,C,ID1,H,0,P,ID2,P,0.000,B,ID3*49
$GPHDT,290.2,T*3C
!AIVDM,1,1,,A,4h6cnrAv@WF59s>MsOPRfkA02<0=,0*18
!AIVDM,1,1,,A,1JLR1ohP0Us:eHaPUI6a6wv>2000,0*55
$GPVTG,231.7,T,219.2,M,0.0,N,0.0,K*41
!AIVDM,1,1,,A,BDn2Wg00Afk9prp99Ba0gwU5n000,0*76
$GPZDA,220510,14,02,2020,00,00*4B
$GPGGA,220510,5448.6062,S,06818.0151,W,1,12,1.5,31,M,,M,,*71
$IIMWV,297,R,13.7,M,A*19
$GPGLL,5448.6062,S,06818.0151,W,220510,A*2C
$IIXDR,C,0.0,C,ID1,H,0,P,ID2,P,0.000,B,ID3*49
$GPHDT,290.2,T*3C
!AIVDM,1,1,,A,1JLQd90P00K=g;EPStqSj?vD2000,0*22
!AIVDM,1,1,,B,1D4UN=01AgK>t5ePO`WTRkTD0000,0*61
!AIVDM,1,1,,B,13e0ld002>K7V2aP`Jf4I3VD086U,0*24
$GPVTG,234.5,T,222.0,M,0.0,N,0.0,K*4C
!AIVDM,1,1,,A,14`Utg@023K7ckCP`Mqc@HtF0<0B,0*68
$GPZDA,220511,14,02,2020,00,00*4A
$GPGGA,220511,5448.6062,S,06818.0151,W,1,12,1.5,31,M,,M,,*70
$IIMWV,298,R,13.9,M,A*18
$GPGLL,5448.6062,S,06818.0151,W,220511,A*2D
$IIXDR,C,0.0,C,ID1,H,0,P,ID2,P,0.000,B,ID3*49
$GPHDT,290.2,T*3C
$GPVTG,240.7,T,228.2,M,0.0,N,0.0,K*45
$GPZDA,220512,14,02,2020,00,00*49
$GPGGA,220512,5448.6062,S,06818.0151,W,1,12,1.5,31,M,,M,,*73
$IIMWV,301,R,14.2,M,A*15
$GPGLL,5448.6062,S,06818.0151,W,220512,A*2E
$IIXDR,C,0.0,C,ID1,H,0,P,ID2,P,0.000,B,ID3*49
!AIVDM,1,1,,A,1:LR1R001nK9nRaPUf1:mH`J087I,0*31
$GPHDT,290.2,T*3C
!AIVDM,1,1,,A,1JLR1R001nK9nRaPUf1:mH`J0000,0*37
!AIVDM,1,1,,B,13mOvJ0vifK9:kIPV4>SvC8F8@7a,0*20
$GPVTG,244.8,T,232.3,M,0.0,N,0.0,K*44
$GPZDA,220513,14,02,2020,00,00*48
$GPGGA,220513,5448.6062,S,06818.0151,W,1,12,1.5,31,M,,M,,*72
$IIMWV,288,R,13.9,M,A*19
$GPGLL,5448.6062,S,06818.0151,W,220513,A*2F
$IIXDR,C,0.0,C,ID1,H,0,P,ID2,P,0.000,B,ID3*49
$GPHDT,290.2,T*3C
!AIVDM,1,1,,B,1D`Uw8PvA9s@Wm1PIgI;Vq:H8000,0*1D
$GPVTG,249.1,T,236.6,M,0.0,N,0.0,K*41
$GPZDA,220514,14,02,2020,00,00*4F
!AIVDM,1,1,,A,1Ca0RF001hK<>D=PThW;5prJ0000,0*05
$GPGGA,220514,5448.6062,S,06818.0151,W,1,12,1.5,31,M,,M,,*75
$IIMWV,294,R,13.0,M,A*1D
!AIVDM,1,1,,B,1:MBuP02A9s7lD;P`2aDBSTL2<0?,0*06
$GPGLL,5448.6062,S,06818.0151,W,220514,A*28
$IIXDR,C,0.0,C,ID1,H,0,P,ID2,P,0.000,B,ID3*49
$GPHDT,290.2,T*3C
!AIVDM,1,1,,A,H3ILg60l5R1>uV2222222222220,2*2C
$GPVTG,254.3,T,241.8,M,0.0,N,0.0,K*41
$GPZDA,220515,14,02,2020,00,00*4E
!AIVDM,1,1,,A,4h6cnniv@WF5>s7FrsP`vhQ02<0B,0*5A
!AIVDM,1,1,,B,1:M31v0P00s7EReP`oh<6?vL2891,0*7B
$GPGGA,220515,5448.6062,S,06818.0151,W,1,12,1.5,31,M,,M,,*74
$IIMWV,303,R,12.8,M,A*1B
$GPGLL,5448.6062,S,06818.0151,W,220515,A*29
$IIXDR,C,0.0,C,ID1,H,0,P,ID2,P,0.000,B,ID3*49
$GPHDT,290.3,T*3D
$GPVTG,255.0,T,242.5,M,0.0,N,0.0,K*4D
$GPZDA,220516,14,02,2020,00,00*4D
$GPGGA,220516,5448.6061,S,06818.0151,W,1,12,1.5,31,M,,M,,*74
$IIMWV,296,R,13.4,M,A*1B
$GPGLL,5448.6061,S,06818.0151,W,220516,A*29
$IIXDR,C,0.0,C,ID1,H,0,P,ID2,P,0.000,B,ID3*49
$GPHDT,290.3,T*3D
!AIVDM,1,1,,A,BDeHKg@0=njQWpH95Lipww`7B000,0*2A
$GPVTG,258.7,T,246.2,M,0.0,N,0.0,K*44
$GPZDA,220517,14,02,2020,00,00*4C
!AIVDM,1,1,,A,Dh6cnnj7t@fr;4@fp00@fp0,2*1F
$GPGGA,220517,5448.6061,S,06818.0151,W,1,12,1.5,31,M,,M,,*75
$IIMWV,302,R,14.4,M,A*10
$GPGLL,5448.6061,S,06818.0151,W,220517,A*28
$IIXDR,C,0.0,C,ID1,H,0,P,ID2,P,0.000,B,ID3*49
$GPHDT,290.3,T*3D
!AIVDM,1,1,,A,13e0ld002@K7V@QP`JCTIkVR0D0>,0*01
!AIVDM,1,1,,A,15A8RL00@0K7GLQP`i7=Tq4L2PRo,0*42
!AIVDM,1,1,,A,1Ce0ld002@K7V@QP`JCTIkVR0000,0*0B
!AIVDM,1,1,,A,1EA8RL00@0K7GLQP`i7=Tq4L2000,0*6F
$GPVTG,259.7,T,247.2,M,0.0,N,0.0,K*44
$GPZDA,220518,14,02,2020,00,00*43
$GPGGA,220518,5448.6061,S,06818.0151,W,1,12,1.5,31,M,,M,,*7A
!AIVDM,1,1,,B,1:LQdQPP00K7EiuP`oiI`OvT20RP,0*51
$IIMWV,301,R,15.0,M,A*16
$GPGLL,5448.6061,S,06818.0151,W,220518,A*27
$IIXDR,C,0.0,C,ID1,H,0,P,ID2,P,0.000,B,ID3*49
$GPHDT,290.4,T*3A
$GPVTG,259.3,T,246.8,M,0.0,N,0.0,K*4B
$GPZDA,220519,14,02,2020,00,00*42
$GPGGA,220519,5448.6061,S,06818.0151,W,1,12,1.5,31,M,,M,,*7B
$IIMWV,295,R,14.8,M,A*13
$GPGLL,5448.6061,S,06818.0151,W,220519,A*26
$IIXDR,C,0.0,C,ID1,H,0,P,ID2,P,0.000,B,ID3*49
$GPHDT,290.4,T*3A
!AIVDM,1,1,,B,4h6cnrAv@WF5Cs>MsQPRfkQ028;f,0*3B
!AIVDM,1,1,,B,1JkJak?P?w<tSF0l4Q@>4?wp0000,0*44
$GPVTG,262.1,T,249.6,M,0.0,N,0.0,K*40
$GPZDA,220520,14,02,2020,00,00*48
$GPGGA,220520,5448.6061,S,06818.0150,W,1,12,1.5,31,M,,M,,*70
$IIMWV,301,R,14.6,M,A*11
$GPGLL,5448.6061,S,06818.0150,W,220520,A*2D
!AIVDM,1,1,,A,1D4UN=01AgK>tEkPO`DlP3T`0000,0*49
$IIXDR,C,0.0,C,ID1,H,0,P,ID2,P,0.000,B,ID3*49
!AIVDM,1,1,,B,14`Utg@023K7cROP`NCKA8t`00SW,0*6A
$GPHDT,290.4,T*3A
$GPVTG,259.5,T,247.0,M,0.0,N,0.0,K*44
$GPZDA,220521,14,02,2020,00,00*49
$GPGGA,220521,5448.6061,S,06818.0150,W,1,12,1.5,31,M,,M,,*71
$IIMWV,304,R,14.5,M,A*17
$GPGLL,5448.6061,S,06818.0150,W,220521,A*2C
$IIXDR,C,0.0,C,ID1,H,0,P,ID2,P,0.000,B,ID3*49
$GPHDT,290.4,T*3A
!AIVDM,1,1,,B,1JLQd90P00K=g;IPStr3Fgvb2000,0*1C
$GPVTG,252.2,T,239.7,M,0.0,N,0.0,K*46
$GPZDA,220522,14,02,2020,00,00*4A
$GPGGA,220522,5448.6061,S,06818.0150,W,1,12,1.5,31,M,,M,,*72
$IIMWV,304,R,15.2,M,A*11
$GPGLL,5448.6061,S,06818.0150,W,220522,A*2F
$IIXDR,C,0.0,C,ID1,H,0,P,ID2,P,0.000,B,ID3*49
!AIVDM,1,1,,A,3:MBuP01A9s7lLMP`2JDAkTd22=k,0*15
$GPHDT,290.4,T*3A
$GPVTG,247.0,T,234.5,M,0.0,N,0.0,K*4F
!AIVDM,2,1,2,A,5:LQdQP00000iOW;GD0E`E5DTDj0l8000000000t1@F5477gN320DPQDU3k`,0*20
!AIVDM,2,2,2,A,5Dj5@B@@000,2*0A
$GPZDA,220523,14,02,2020,00,00*4B
!AIVDM,1,1,,B,13e0ld002@K7VJaP`J04JS`d0<0>,0*68
$GPGGA,220523,5448.6061,S,06818.0150,W,1,12,1.5,31,M,,M,,*73
$IIMWV,302,R,15.7,M,A*12
!AIVDM,1,1,,B,1:LR1R001nK9n?aPUf=Jnpbh0@=h,0*6B
$GPGLL,5448.6061,S,06818.0150,W,220523,A*2E
$IIXDR,C,0.0,C,ID1,H,0,P,ID2,P,0.000,B,ID3*49
$GPHDT,290.5,T*3B
!AIVDM,1,1,,B,1JLR1R001nK9n?aPUf=Jnpbh0000,0*3E
$GPVTG,242.1,T,229.6,M,0.0,N,0.0,K*44
$GPZDA,220524,14,02,2020,00,00*4C
$GPGGA,220524,5448.6061,S,06818.0150,W,1,12,1.5,31,M,,M,,*74
$IIMWV,300,R,15.7,M,A*10
$GPGLL,5448.6061,S,06818.0150,W,220524,A*29
$IIXDR,C,0.0,C,ID1,H,0,P,ID2,P,0.000,B,ID3*49
$GPHDT,290.5,T*3B
!AIVDM,1,1,,B,1Ca0RF001hK<>19PThss68rf0000,0*7C
$GPVTG,237.2,T,224.7,M,0.0,N,0.0,K*49
$GPZDA,220525,14,02,2020,00,00*4D
!AIVDM,1,1,,B,4h6cnniv@WF5Hs7FrqP`vhQ02D0B,0*55
$GPGGA,220525,5448.6061,S,06818.0150,W,1,12,1.5,31,M,,M,,*75
$IIMWV,297,R,15.1,M,A*19
$GPGLL,5448.6061,S,06818.0150,W,220525,A*28
$IIXDR,C,0.0,C,ID1,H,0,P,ID2,P,0.000,B,ID3*49
$GPHDT,290.5,T*3B
!AIVDM,1,1,,A,H3ILg64T653hhhi68H4PPP1P5410,0*1B
$GPVTG,237.4,T,224.9,M,0.0,N,0.0,K*41
$GPZDA,220526,14,02,2020,00,00*4E
$GPGGA,220526,5448.6060,S,06818.0150,W,1,12,1.5,31,M,,M,,*77
$IIMWV,305,R,14.6,M,A*15
$GPGLL,5448.6060,S,06818.0150,W,220526,A*2A
$IIXDR,C,0.0,C,ID1,H,0,P,ID2,P,0.000,B,ID3*49
!AIVDM,1,1,,A,1:M31v0P00s7ERiP`ogd0Ovl2<0<,0*75
$GPHDT,290.5,T*3B
$GPVTG,230.9,T,218.4,M,0.0,N,0.0,K*49
$GPZDA,220527,14,02,2020,00,00*4F
$GPGGA,220527,5448.6060,S,06818.0150,W,1,12,1.5,31,M,,M,,*76
$IIMWV,305,R,14.9,M,A*1A
$GPGLL,5448.6060,S,06818.0150,W,220527,A*2B
$IIXDR,C,0.0,C,ID1,H,0,P,ID2,P,0.000,B,ID3*49
$GPHDT,290.4,T*3A
!AIVDM,1,1,,B,Dh6cnniGP@fqJ`@fqMh@fp0,2*49
$GPVTG,227.8,T,215.3,M,0.0,N,0.0,K*44
$GPZDA,220528,14,02,2020,00,00*40
!AIVDM,1,1,,A,1:LQdQPP00K7EiwP`oj9:gvp2D0?,0*0C
!AIVDM,1,1,,B,15A8RL0wP0K7GLQP`i7=Tq4j2p9q,0*65
$GPGGA,220528,5448.6060,S,06818.0150,W,1,12,1.5,31,M,,M,,*79
$IIMWV,302,R,15.7,M,A*12
$GPGLL,5448.6060,S,06818.0150,W,220528,A*24
$IIXDR,C,0.0,C,ID1,H,0,P,ID2,P,0.000,B,ID3*49
$GPHDT,290.4,T*3A
$GPVTG,228.9,T,216.4,M,0.0,N,0.0,K*4E
$GPZDA,220529,14,02,2020,00,00*41
$GPGGA,220529,5448.6060,S,06818.0150,W,1,12,1.5,31,M,,M,,*78
$IIMWV,300,R,17.0,M,A*15
$GPGLL,5448.6060,S,06818.0150,W,220529,A*25
$IIXDR,C,0.0,C,ID1,H,0,P,ID2,P,0.000,B,ID3*49
$GPHDT,290.4,T*3A
!AIVDM,1,1,,A,4h6cnrAv@WF5Ms>MsQPRfl102D0=,0*7D
!AIVDM,1,1,,A,1JLR1ohP25s:dviPUHw:wOvr2000,0*2E
!AIVDM,1,1,,A,13e0ld002?K7V`IP`ISTKk`r0@Ab,0*68
$GPVTG,225.0,T,212.5,M,0.0,N,0.0,K*4F
$GPZDA,220530,14,02,2020,00,00*49
$GPGGA,220530,5448.6060,S,06818.0150,W,1,12,1.5,31,M,,M,,*70
$IIMWV,305,R,17.6,M,A*16
$GPGLL,5448.6060,S,06818.0150,W,220530,A*2D
$IIXDR,C,0.0,C,ID1,H,0,P,ID2,P,0.000,B,ID3*49
$GPHDT,290.4,T*3A
$GPVTG,221.3,T,208.8,M,0.0,N,0.0,K*4E
!AIVDM,1,1,,A,1JLQd90P00K=g;MPStr@0?vv2000,0*52
$GPZDA,220531,14,02,2020,00,00*48
!AIVDM,1,1,,B,1D4UN=0w1nK>tSePOWT4UCTv0000,0*71
$GPGGA,220531,5448.6060,S,06818.0150,W,1,12,1.5,31,M,,M,,*71
$IIMWV,304,R,17.4,M,A*15
!AIVDM,1,1,,A,14`Utg@024K7c=oP`Njs>prv0HBL,0*65
$GPGLL,5448.6060,S,06818.0150,W,220531,A*2C
$IIXDR,C,0.0,C,ID1,H,0,P,ID2,P,0.000,B,ID3*49
$GPHDT,290.4,T*3A
$GPVTG,212.4,T,199.9,M,0.0,N,0.0,K*43
$GPZDA,220532,14,02,2020,00,00*4B
$GPGGA,220532,5448.6060,S,06818.0150,W,1,12,1.5,31,M,,M,,*72
$IIMWV,304,R,16.8,M,A*18
$GPGLL,5448.6060,S,06818.0150,W,220532,A*2F
$IIXDR,C,0.0,C,ID1,H,0,P,ID2,P,0.000,B,ID3*49
$GPHDT,290.4,T*3A
!AIVDM,1,1,,A,1:LR1R001nK9mumPUfIrppc20D0P,0*15
$GPVTG,215.0,T,202.5,M,0.0,N,0.0,K*4D
$GPZDA,220533,14,02,2020,00,00*4A
$GPGGA,220533,5448.6060,S,06818.0150,W,1,12,1.5,31,M,,M,,*73
$IIMWV,300,R,16.6,M,A*12
$GPGLL,5448.6060,S,06818.0150,W,220533,A*2E
$IIXDR,C,0.0,C,ID1,H,0,P,ID2,P,0.000,B,ID3*49
$GPHDT,290.4,T*3A
!AIVDM,1,1,,B,1:MBuP02A9s7lWmP`25DBSU22<0?,0*68
!AIVDM,1,1,,B,13mOvJ0vifK9;EQPV3fCv39080S;,0*11
!AIVDM,1,1,,A,1Ca0RF001iK<=f7PTiA;5ps20000,0*41
$GPVTG,217.0,T,204.5,M,0.0,N,0.0,K*49
$GPZDA,220534,14,02,2020,00,00*4D
$GPGGA,220534,5448.6059,S,06818.0150,W,1,12,1.5,31,M,,M,,*7E
$IIMWV,295,R,16.1,M,A*18
$GPGLL,5448.6059,S,06818.0150,W,220534,A*23
$IIXDR,C,0.0,C,ID1,H,0,P,ID2,P,0.000,B,ID3*49
$GPHDT,290.4,T*3A
!AIVDM,1,1,,B,1D`Uw8P2A9s@WPIPIh;;W9;28000,0*53
!AIVDM,1,1,,B,1:M31v0P00s7ERaP`ofKG?w42D0<,0*76
$GPVTG,218.2,T,205.7,M,0.0,N,0.0,K*47
$GPZDA,220535,14,02,2020,00,00*4C
!AIVDM,1,1,,A,4h6cnniv@WF5Rs7FrqP`vhQ02@De,0*1B
$GPGGA,220535,5448.6059,S,06818.0150,W,1,12,1.5,31,M,,M,,*7F
$IIMWV,294,R,15.2,M,A*19
$GPGLL,5448.6059,S,06818.0150,W,220535,A*22
$IIXDR,C,0.0,C,ID1,H,0,P,ID2,P,0.000,B,ID3*49
$GPHDT,290.4,T*3A
!AIVDM,1,1,,B,13e0ld002?K7VlIP`I<TKka60D0>,0*64
$GPVTG,221.8,T,209.3,M,0.0,N,0.0,K*4F
$GPZDA,220536,14,02,2020,00,00*4F
$GPGGA,220536,5448.6059,S,06818.0150,W,1,12,1.5,31,M,,M,,*7C
$IIMWV,304,R,14.0,M,A*12
$GPGLL,5448.6059,S,06818.0150,W,220536,A*21
$IIXDR,C,0.0,C,ID1,H,0,P,ID2,P,0.000,B,ID3*49
$GPHDT,290.4,T*3A
!AIVDM,1,1,,B,1:LQdQPP00K7Ej7P`oj`5gw:20SG,0*3E
$GPVTG,224.3,T,211.8,M,0.0,N,0.0,K*43
$GPZDA,220537,14,02,2020,00,00*4E
!AIVDM,1,1,,A,Dh6cnniI4@fqL<@fqMh@fp0,2*7A
$GPGGA,220537,5448.6059,S,06818.0149,W,1,12,1.5,31,M,,M,,*75
$IIMWV,300,R,13.2,M,A*13
$GPGLL,5448.6059,S,06818.0149,W,220537,A*28
$IIXDR,C,0.0,C,ID1,H,0,P,ID2,P,0.000,B,ID3*49
$GPHDT,290.4,T*3A
!AIVDM,2,1,3,A,5:MBuP41ju3hht4V2204hlU84q@F0U8U`5:2220S000004H?0FhCU0DU2A0H,0*45
!AIVDM,2,2,3,A,0DQiCU2CPH0,2*14
$GPVTG,221.6,T,209.1,M,0.0,N,0.0,K*43
$GPZDA,220538,14,02,2020,00,00*41
$GPGGA,220538,5448.6059,S,06818.0149,W,1,12,1.5,31,M,,M,,*7A
$IIMWV,300,R,13.7,M,A*16
$GPGLL,5448.6059,S,06818.0149,W,220538,A*27
$IIXDR,C,0.0,C,ID1,H,0,P,ID2,P,0.000,B,ID3*49
$GPHDT,290.4,T*3A
!AIVDM,1,1,,A,15A8RL00P0K7GLQP`i7=Tq562h@4,0*58
!AIVDM,1,1,,A,1EA8RL00P0K7GLQP`i7=Tq562000,0*04
$GPVTG,220.8,T,208.3,M,0.0,N,0.0,K*4F
$GPZDA,220539,14,02,2020,00,00*40
$GPGGA,220539,5448.6059,S,06818.0149,W,1,12,1.5,31,M,,M,,*7B
$IIMWV,303,R,14.8,M,A*1D
$GPGLL,5448.6059,S,06818.0149,W,220539,A*26
$IIXDR,C,0.0,C,ID1,H,0,P,ID2,P,0.000,B,ID3*49
$GPHDT,290.4,T*3A
!AIVDM,1,1,,B,4h6cnrAv@WF5Ws>MsOPRfl1028GL,0*00
!AIVDM,1,1,,B,1JkJak?P?w<tSF0l4Q@>4?wp0000,0*44
$GPVTG,223.9,T,211.4,M,0.0,N,0.0,K*42
$GPZDA,220540,14,02,2020,00,00*4E
$GPGGA,220540,5448.6059,S,06818.0149,W,1,12,1.5,31,M,,M,,*75
$IIMWV,301,R,16.1,M,A*14
$GPGLL,5448.6059,S,06818.0149,W,220540,A*28
$IIXDR,C,0.0,C,ID1,H,0,P,ID2,P,0.000,B,ID3*49
$GPHDT,290.4,T*3A
!AIVDM,1,1,,B,14`Utg@024K7btuP`O<K?`s@06hD,0*21
!AIVDM,1,1,,A,1:LQdh`P29K:fP3PU?i;7?w@0HH1,0*25
!AIVDM,1,1,,A,1JLQdh`P29K:fP3PU?i;7?w@0000,0*54
$GPVTG,223.9,T,211.4,M,0.0,N,0.0,K*42
$GPZDA,220541,14,02,2020,00,00*4F
$GPGGA,220541,5448.6059,S,06818.0149,W,1,12,1.5,31,M,,M,,*74
$IIMWV,307,R,16.6,M,A*15
$GPGLL,5448.6059,S,06818.0149,W,220541,A*29
$IIXDR,C,0.0,C,ID1,H,0,P,ID2,P,0.000,B,ID3*49
$GPHDT,290.4,T*3A
$GPVTG,222.4,T,209.9,M,0.0,N,0.0,K*4A
$GPZDA,220542,14,02,2020,00,00*4C
$GPGGA,220542,5448.6059,S,06818.0149,W,1,12,1.5,31,M,,M,,*77
$IIMWV,299,R,15.7,M,A*11
$GPGLL,5448.6059,S,06818.0149,W,220542,A*2A
$IIXDR,C,0.0,C,ID1,H,0,P,ID2,P,0.000,B,ID3*49
$GPHDT,290.4,T*3A
!AIVDM,1,1,,B,1:LR1R001nK9mdUPUfVrr8aF0HI:,0*03
!AIVDM,1,1,,B,1JLR1R001nK9mdUPUfVrr8aF0000,0*78
$GPVTG,222.3,T,209.8,M,0.0,N,0.0,K*4C
$GPZDA,220543,14,02,2020,00,00*4D
$GPGGA,220543,5448.6058,S,06818.0149,W,1,12,1.5,31,M,,M,,*77
$IIMWV,287,R,14.4,M,A*1C
$GPGLL,5448.6058,S,06818.0149,W,220543,A*2A
!AIVDM,1,1,,A,1:MBuP0219s7lj;P`1ilDCWF2HIS,0*06
$IIXDR,C,0.0,C,ID1,H,0,P,ID2,P,0.000,B,ID3*49
$GPHDT,290.4,T*3A
$GPVTG,231.5,T,219.0,M,0.0,N,0.0,K*41
!AIVDM,1,1,,A,13mOvJ001fK9;UkPV3OCuk9D88Iv,0*7F
$GPZDA,220544,14,02,2020,00,00*4A
$GPGGA,220544,5448.6058,S,06818.0149,W,1,12,1.5,31,M,,M,,*70
$IIMWV,296,R,13.0,M,A*1F
$GPGLL,5448.6058,S,06818.0149,W,220544,A*2D
!AIVDM,1,1,,B,1Ca0RF001iK<=K7PTiWc5psH0000,0*5B
$IIXDR,C,0.0,C,ID1,H,0,P,ID2,P,0.000,B,ID3*49
$GPHDT,290.4,T*3A
$GPVTG,229.9,T,217.4,M,0.0,N,0.0,K*4E
$GPZDA,220545,14,02,2020,00,00*4B
!AIVDM,1,1,,B,4h6cnniv@WF5ds7FrsP`vhQ020S:,0*14
$GPGGA,220545,5448.6058,S,06818.0149,W,1,12,1.5,31,M,,M,,*71
$IIMWV,296,R,12.5,M,A*1B
$GPGLL,5448.6058,S,06818.0149,W,220545,A*2C
$IIXDR,C,0.0,C,ID1,H,0,P,ID2,P,0.000,B,ID3*49
$GPHDT,290.4,T*3A
!AIVDM,1,1,,A,1:kJak?P?w<tSF0l4Q@>4?wp0hK0,0*14
$GPVTG,229.2,T,216.7,M,0.0,N,0.0,K*47
$GPZDA,220546,14,02,2020,00,00*48
$GPGGA,220546,5448.6058,S,06818.0149,W,1,12,1.5,31,M,,M,,*72
$IIMWV,301,R,12.4,M,A*15
$GPGLL,5448.6058,S,06818.0149,W,220546,A*2F
!AIVDM,1,1,,A,1:M31v0P00s7ERaP`ofcf?wL20Ro,0*41
$IIXDR,C,0.0,C,ID1,H,0,P,ID2,P,0.000,B,ID3*49
$GPHDT,290.4,T*3A
$GPVTG,230.5,T,218.0,M,0.0,N,0.0,K*41
$GPZDA,220547,14,02,2020,00,00*49
!AIVDM,1,1,,A,1:LQdQPP00K7Ej9P`okGbgwN28Kh,0*09
$GPGGA,220547,5448.6058,S,06818.0149,W,1,12,1.5,31,M,,M,,*73
$IIMWV,296,R,12.7,M,A*19
!AIVDM,1,1,,B,15A8RL00@0K7GLQP`i7=Tq5H2`E4,0*38
!AIVDM,1,1,,B,13e0ld002@K7W<AP`HM4L3aN0@Kn,0*5A
$GPGLL,5448.6058,S,06818.0149,W,220547,A*2E
$IIXDR,C,0.0,C,ID1,H,0,P,ID2,P,0.000,B,ID3*49
!AIVDM,1,1,,B,1EA8RL00@0K7GLQP`i7=Tq5H2000,0*69
$GPHDT,290.4,T*3A
!AIVDM,1,1,,B,Dh6cnnh``@fpch@fpfp@fp0,2*4D
$GPVTG,236.1,T,223.6,M,0.0,N,0.0,K*4D
$GPZDA,220548,14,02,2020,00,00*46
$GPGGA,220548,5448.6058,S,06818.0149,W,1,12,1.5,31,M,,M,,*7C
$IIMWV,291,R,12.9,M,A*10
$GPGLL,5448.6058,S,06818.0149,W,220548,A*21
$IIXDR,C,0.0,C,ID1,H,0,P,ID2,P,0.000,B,ID3*49
$GPHDT,290.5,T*3B
$GPVTG,237.0,T,224.5,M,0.0,N,0.0,K*49
$GPZDA,220549,14,02,2020,00,00*47
$GPGGA,220549,5448.6058,S,06818.0149,W,1,12,1.5,31,M,,M,,*7D
$IIMWV,291,R,13.0,M,A*18
$GPGLL,5448.6058,S,06818.0149,W,220549,A*20
$IIXDR,C,0.0,C,ID1,H,0,P,ID2,P,0.000,B,ID3*49
$GPHDT,290.5,T*3B
!AIVDM,1,1,,A,14`Utg@024K7bd3P`OUc@8sR0<0B,0*54
!AIVDM,1,1,,A,4h6cnrAv@WF5is>MsOPRfl102D0=,0*47
!AIVDM,1,1,,A,3JLR1ohP2hs:dCIPUIT;2wwN2000,0*07
$GPVTG,231.9,T,219.4,M,0.0,N,0.0,K*49
$GPZDA,220550,14,02,2020,00,00*4F
$GPGGA,220550,5448.6058,S,06818.0149,W,1,12,1.5,31,M,,M,,*75
$IIMWV,297,R,12.8,M,A*17
$GPGLL,5448.6058,S,06818.0149,W,220550,A*28
$IIXDR,C,0.0,C,ID1,H,0,P,ID2,P,0.000,B,ID3*49
$GPHDT,290.5,T*3B
$GPVTG,229.1,T,216.6,M,0.0,N,0.0,K*45
$GPZDA,220551,14,02,2020,00,00*4E
$GPGGA,220551,5448.6058,S,06818.0149,W,1,12,1.5,31,M,,M,,*74
$IIMWV,299,R,12.4,M,A*15
$GPGLL,5448.6058,S,06818.0149,W,220551,A*29
$IIXDR,C,0.0,C,ID1,H,0,P,ID2,P,0.000,B,ID3*49
$GPHDT,290.5,T*3B
!AIVDM,1,1,,B,1D4UN=0sAiK>u21POVPTPkOV0000,0*45
$GPVTG,231.4,T,218.9,M,0.0,N,0.0,K*48
$GPZDA,220552,14,02,2020,00,00*4D
$GPGGA,220552,5448.6057,S,06818.0149,W,1,12,1.5,31,M,,M,,*78
$IIMWV,300,R,12.3,M,A*13
$GPGLL,5448.6057,S,06818.0149,W,220552,A*25
$IIXDR,C,0.0,C,ID1,H,0,P,ID2,P,0.000,B,ID3*49
$GPHDT,290.5,T*3B
!AIVDM,1,1,,B,1:MBuP0019s7lsMP`1PDBSW`20SC,0*3B
!AIVDM,1,1,,A,13e0ld002?K7WF1P`H84LCa`0<0>,0*50
$GPVTG,234.5,T,222.0,M,0.0,N,0.0,K*4C
$GPZDA,220553,14,02,2020,00,00*4C
!AIVDM,1,1,,A,1:LR1R001mK9mJqPUfjrq`ad00Ro,0*7A
$GPGGA,220553,5448.6057,S,06818.0149,W,1,12,1.5,31,M,,M,,*79
$IIMWV,305,R,13.0,M,A*14
$GPGLL,5448.6057,S,06818.0149,W,220553,A*24
$IIXDR,C,0.0,C,ID1,H,0,P,ID2,P,0.000,B,ID3*49
$GPHDT,290.5,T*3B
!AIVDM,1,1,,A,B:LR2I000>imF:H:<s003wrWCP06,0*04
$GPVTG,235.7,T,223.2,M,0.0,N,0.0,K*4C
$GPZDA,220554,14,02,2020,00,00*4B
$GPGGA,220554,5448.6057,S,06818.0149,W,1,12,1.5,31,M,,M,,*7E
$IIMWV,305,R,14.6,M,A*15
$GPGLL,5448.6057,S,06818.0149,W,220554,A*23
$IIXDR,C,0.0,C,ID1,H,0,P,ID2,P,0.000,B,ID3*49
$GPHDT,290.5,T*3B
!AIVDM,1,1,,B,1:M31v0P00s7ERiP`ofcowwd20SD,0*09
$GPVTG,233.2,T,220.7,M,0.0,N,0.0,K*49
$GPZDA,220555,14,02,2020,00,00*4A
!AIVDM,1,1,,A,4h6cnniv@WF5ns7FrsP`vhA02HPK,0*07
$GPGGA,220555,5448.6057,S,06818.0149,W,1,12,1.5,31,M,,M,,*7F
$IIMWV,302,R,15.7,M,A*12
$GPGLL,5448.6057,S,06818.0149,W,220555,A*22
$IIXDR,C,0.0,C,ID1,H,0,P,ID2,P,0.000,B,ID3*49
$GPHDT,290.5,T*3B
$GPVTG,235.4,T,222.9,M,0.0,N,0.0,K*45
!AIVDM,1,1,,A,3:LR16E000s7ECmP`l<M;99f2DmJ,0*4D
$GPZDA,220556,14,02,2020,00,00*49
$GPGGA,220556,5448.6057,S,06818.0149,W,1,12,1.5,31,M,,M,,*7C
$IIMWV,302,R,16.5,M,A*13
$GPGLL,5448.6057,S,06818.0149,W,220556,A*21
$IIXDR,C,0.0,C,ID1,H,0,P,ID2,P,0.000,B,ID3*49
$GPHDT,290.5,T*3B
$GPVTG,237.0,T,224.5,M,0.0,N,0.0,K*49
$GPZDA,220557,14,02,2020,00,00*48
!AIVDM,1,1,,A,Dh6cnnhb<@fpeD@fpfp@fp0,2*3A
$GPGGA,220557,5448.6057,S,06818.0149,W,1,12,1.5,30,M,,M,,*7C
$IIMWV,303,R,16.7,M,A*10
$GPGLL,5448.6057,S,06818.0149,W,220557,A*20
$IIXDR,C,0.0,C,ID1,H,0,P,ID2,P,0.000,B,ID3*49
$GPHDT,290.5,T*3B
$GPVTG,236.8,T,224.3,M,0.0,N,0.0,K*46
!AIVDM,1,1,,B,1:LQdQPP00K7EjCP`ola7?wl2@R9,0*4E
$GPZDA,220558,14,02,2020,00,00*47
$GPGGA,220558,5448.6057,S,06818.0149,W,1,12,1.5,30,M,,M,,*73
$IIMWV,304,R,16.8,M,A*18
!AIVDM,1,1,,A,15A8RL0wh0K7GLQP`i7=Tq5f2`KP,0*10
$GPGLL,5448.6057,S,06818.0149,W,220558,A*2F
$IIXDR,C,0.0,C,ID1,H,0,P,ID2,P,0.000,B,ID3*49
$GPHDT,290.5,T*3B
$GPVTG,237.7,T,225.2,M,0.0,N,0.0,K*48
$GPZDA,220559,14,02,2020,00,00*46
$GPGGA,220559,5448.6057,S,06818.0149,W,1,12,1.5,30,M,,M,,*72
$IIMWV,304,R,16.8,M,A*18
!AIVDM,1,1,,B,13e0ld002AK7WT1P`Gc4M3an0<0>,0*14
$GPGLL,5448.6057,S,06818.0149,W,220559,A*2E
$IIXDR,C,0.0,C,ID1,H,0,P,ID2,P,0.000,B,ID3*49
$GPHDT,290.5,T*3B
!AIVDM,1,1,,B,14`Utg@024K7bICP`P2K@`sn08S1,0*2A
!AIVDM,1,1,,B,4h6cnrAv@WF5ss>MsMPRfki020S:,0*13
!AIVDM,1,1,,B,1JkJak?P?w<tSF0l4Q@>4?wp0000,0*44
$GPVTG,234.9,T,222.4,M,0.0,N,0.0,K*44
!AIVDM,1,1,,A,1D4UN=0s1hK>u@5POV54J3J00000,0*65
$GPZDA,220600,14,02,2020,00,00*49
$GPGGA,220600,5448.6057,S,06818.0149,W,1,12,1.5,30,M,,M,,*7D
$IIMWV,296,R,16.2,M,A*18
$GPGLL,5448.6057,S,06818.0149,W,220600,A*21
$IIXDR,C,0.0,C,ID1,H,0,P,ID2,P,0.000,B,ID3*49
$GPHDT,290.5,T*3B
$GPVTG,235.8,T,223.3,M,0.0,N,0.0,K*42
$GPZDA,220601,14,02,2020,00,00*48
$GPGGA,220601,5448.6056,S,06818.0149,W,1,12,1.5,30,M,,M,,*7D
!AIVDM,1,1,,B,1JLQd90P00K=g;WPSttSLwv22000,0*2E
$IIMWV,303,R,15.4,M,A*10
$GPGLL,5448.6056,S,06818.0149,W,220601,A*21
$IIXDR,C,0.0,C,ID1,H,0,P,ID2,P,0.000,B,ID3*49
$GPHDT,290.5,T*3B
!AIVDM,1,1,,B,1:LR1R001mK9m<kPUftJp`V406hH,0*4E
$GPVTG,235.6,T,223.1,M,0.0,N,0.0,K*4E
$GPZDA,220602,14,02,2020,00,00*4B
$GPGGA,220602,5448.6056,S,06818.0149,W,1,12,1.5,30,M,,M,,*7E
$IIMWV,303,R,15.0,M,A*14
$GPGLL,5448.6056,S,06818.0149,W,220602,A*22
$IIXDR,C,0.0,C,ID1,H,0,P,ID2,P,0.000,B,ID3*49
$GPHDT,290.5,T*3B
!AIVDM,1,1,,A,1JLQdh`P29K:el9PU@Uc7Ov40000,0*7F
!AIVDM,1,1,,A,1:MBuP01i9s7m5gP`1<TEC`42<0@,0*68
$GPVTG,236.7,T,224.2,M,0.0,N,0.0,K*48
$GPZDA,220603,14,02,2020,00,00*4A
$GPGGA,220603,5448.6056,S,06818.0149,W,1,12,1.5,30,M,,M,,*7F
$IIMWV,299,R,15.2,M,A*14
$GPGLL,5448.6056,S,06818.0149,W,220603,A*23
$IIXDR,C,0.0,C,ID1,H,0,P,ID2,P,0.000,B,ID3*49
$GPHDT,290.5,T*3B
!AIVDM,1,1,,B,13a0RF001iK<<m5PTjCs68r60D0C,0*3A
!AIVDM,1,1,,B,1Ca0RF001iK<<m5PTjCs68r60000,0*4D
$GPVTG,236.8,T,224.3,M,0.0,N,0.0,K*46
$GPZDA,220604,14,02,2020,00,00*4D
$GPGGA,220604,5448.6056,S,06818.0149,W,1,12,1.5,30,M,,M,,*78
$IIMWV,304,R,15.9,M,A*1A
$GPGLL,5448.6056,S,06818.0149,W,220604,A*24
$IIXDR,C,0.0,C,ID1,H,0,P,ID2,P,0.000,B,ID3*49
$GPHDT,290.5,T*3B
$GPVTG,237.0,T,224.5,M,0.0,N,0.0,K*49
!AIVDM,1,1,,A,1:M31v0P00s7ERmP`ofcT?v820S9,0*5D
$GPZDA,220605,14,02,2020,00,00*4C
!AIVDM,1,1,,B,4h6cnniv@WF64s7FrsP`vhA02L0@,0*32
$GPGGA,220605,5448.6056,S,06818.0149,W,1,12,1.5,30,M,,M,,*79
!AIVDM,1,1,,A,13e0ld002@K7WeiP`GHTM3V806hH,0*71
$IIMWV,307,R,16.2,M,A*11
$GPGLL,5448.6056,S,06818.0149,W,220605,A*25
$IIXDR,C,0.0,C,ID1,H,0,P,ID2,P,0.000,B,ID3*49
$GPHDT,290.5,T*3B
$GPVTG,239.2,T,226.7,M,0.0,N,0.0,K*45
$GPZDA,220606,14,02,2020,00,00*4F
$GPGGA,220606,5448.6056,S,06818.0149,W,1,12,1.5,30,M,,M,,*7A
$IIMWV,302,R,16.5,M,A*13
$GPGLL,5448.6056,S,06818.0149,W,220606,A*26
$IIXDR,C,0.0,C,ID1,H,0,P,ID2,P,0.000,B,ID3*49
$GPHDT,290.6,T*38
!AIVDM,1,1,,B,3:MNcGmP02K7ET=P`ok0owv:0000,0*34
!AIVDM,1,1,,A,1:kJak?P?w<tSF0l4Q@>4?wp0W3h,0*0B
$GPVTG,244.3,T,231.8,M,0.0,N,0.0,K*47
$GPZDA,220607,14,02,2020,00,00*4E
$GPGGA,220607,5448.6056,S,06818.0149,W,1,12,1.5,30,M,,M,,*7B
$IIMWV,300,R,16.3,M,A*17
$GPGLL,5448.6056,S,06818.0149,W,220607,A*27
$IIXDR,C,0.0,C,ID1,H,0,P,ID2,P,0.000,B,ID3*49
$GPHDT,290.6,T*38
!AIVDM,1,1,,B,15A8RL0000K7GLQP`i7=Tq482hQ4,0*25
!AIVDM,1,1,,B,Dh6cnnj6H@fr9P@fp00@fp0,2*47
!AIVDM,1,1,,B,1EA8RL0000K7GLQP`i7=Tq482000,0*68
$GPVTG,251.2,T,238.7,M,0.0,N,0.0,K*44
$GPZDA,220608,14,02,2020,00,00*41
!AIVDM,1,1,,A,1:LQdQPP00K7Ej=P`om:M?v@2H4t,0*1D
$GPGGA,220608,5448.6056,S,06818.0149,W,1,12,1.5,30,M,,M,,*74
$IIMWV,302,R,15.9,M,A*1C
$GPGLL,5448.6056,S,06818.0149,W,220608,A*28
$IIXDR,C,0.0,C,ID1,H,0,P,ID2,P,0.000,B,ID3*49
$GPHDT,290.6,T*38
$GPVTG,253.3,T,240.8,M,0.0,N,0.0,K*47
$GPZDA,220609,14,02,2020,00,00*40
$GPGGA,220609,5448.6055,S,06818.0149,W,1,12,1.5,30,M,,M,,*76
$IIMWV,303,R,15.5,M,A*11
$GPGLL,5448.6055,S,06818.0149,W,220609,A*2A
$IIXDR,C,0.0,C,ID1,H,0,P,ID2,P,0.000,B,ID3*49
$GPHDT,290.6,T*38
$GPVTG,256.8,T,244.3,M,0.0,N,0.0,K*46
$GPZDA,220610,14,02,2020,00,00*48
$GPGGA,220610,5448.6055,S,06818.0149,W,1,12,1.5,30,M,,M,,*7E
$IIMWV,300,R,15.4,M,A*13
$GPGLL,5448.6055,S,06818.0149,W,220610,A*22
$IIXDR,C,0.0,C,ID1,H,0,P,ID2,P,0.000,B,ID3*49
$GPHDT,290.6,T*38
!AIVDM,1,1,,A,BDn2Wg00Avk:8tH98uPwGwU5n000,0*73
!AIVDM,1,1,,B,13e0ld002@K7WqqP`G04L3VD06hH,0*1B
$GPVTG,258.8,T,246.3,M,0.0,N,0.0,K*4A
!AIVDM,1,1,,A,14`Utg@023K7b2gP`PT;@8rF086V,0*14
$GPZDA,220611,14,02,2020,00,00*49
$GPGGA,220611,5448.6055,S,06818.0149,W,1,12,1.5,30,M,,M,,*7F
$IIMWV,302,R,15.0,M,A*15
$GPGLL,5448.6055,S,06818.0149,W,220611,A*23
$IIXDR,C,0.0,C,ID1,H,0,P,ID2,P,0.000,B,ID3*49
$GPHDT,290.6,T*38
!AIVDM,1,1,,B,3JLR1ohP3Fs:c=aPUJNc2wvF2000,0*32
$GPVTG,266.5,T,254.0,M,0.0,N,0.0,K*4A
$GPZDA,220612,14,02,2020,00,00*4A
$GPGGA,220612,5448.6055,S,06818.0149,W,1,12,1.5,30,M,,M,,*7C
$IIMWV,300,R,14.5,M,A*13
$GPGLL,5448.6055,S,06818.0149,W,220612,A*20
$IIXDR,C,0.0,C,ID1,H,0,P,ID2,P,0.000,B,ID3*49
!AIVDM,1,1,,A,1:LR1R001mK9lqQPUg9boHVJ06hH,0*16
$GPHDT,290.6,T*38
!AIVDM,1,1,,B,13mOvJ001fK9<E1PV2jCuS8F8<0@,0*65
$GPVTG,278.1,T,265.6,M,0.0,N,0.0,K*45
$GPZDA,220613,14,02,2020,00,00*4B
$GPGGA,220613,5448.6055,S,06818.0148,W,1,12,1.5,30,M,,M,,*7C
$IIMWV,302,R,14.5,M,A*11
$GPGLL,5448.6055,S,06818.0148,W,220613,A*20
$IIXDR,C,0.0,C,ID1,H,0,P,ID2,P,0.000,B,ID3*49
$GPHDT,290.6,T*38
!AIVDM,1,1,,A,13a0RF0PAiK<<PCPTjds6HpL0@8D,0*46
$GPVTG,286.3,T,273.8,M,0.0,N,0.0,K*4F
$GPZDA,220614,14,02,2020,00,00*4C
!AIVDM,1,1,,B,1DW`ej001aK?Ml9P=V30`0LL0000,0*3C
$GPGGA,220614,5448.6055,S,06818.0148,W,1,12,1.5,30,M,,M,,*7B
$IIMWV,304,R,15.2,M,A*11
!AIVDM,1,1,,B,1:MBuP0019s7mB3P`0lTF3`L288O,0*48
$GPGLL,5448.6055,S,06818.0148,W,220614,A*27
$IIXDR,C,0.0,C,ID1,H,0,P,ID2,P,0.000,B,ID3*49
$GPHDT,290.6,T*38
$GPVTG,293.0,T,280.5,M,0.0,N,0.0,K*49
$GPZDA,220615,14,02,2020,00,00*4D
!AIVDM,1,1,,A,4h6cnniv@WF6>s7FrqP`vhA0288w,0*72
!AIVDM,1,1,,B,1:M31v0P00s7ERkP`ofcSOvL26hH,0*17
$GPGGA,220615,5448.6055,S,06818.0148,W,1,12,1.5,30,M,,M,,*7A
$IIMWV,303,R,15.8,M,A*1C
$GPGLL,5448.6055,S,06818.0148,W,220615,A*26
$IIXDR,C,0.0,C,ID1,H,0,P,ID2,P,0.000,B,ID3*49
$GPHDT,290.6,T*38
$GPVTG,279.9,T,267.4,M,0.0,N,0.0,K*4C
$GPZDA,220616,14,02,2020,00,00*4E
$GPGGA,220616,5448.6055,S,06818.0148,W,1,12,1.5,30,M,,M,,*79
$IIMWV,305,R,16.3,M,A*12
$GPGLL,5448.6055,S,06818.0148,W,220616,A*25
$IIXDR,C,0.0,C,ID1,H,0,P,ID2,P,0.000,B,ID3*49
$GPHDT,290.6,T*38
$GPVTG,263.5,T,251.0,M,0.0,N,0.0,K*4A
$GPZDA,220617,14,02,2020,00,00*4F
!AIVDM,1,1,,A,Dh6cnnj7t@fr;4@fp00@fp0,2*1F
!AIVDM,1,1,,B,1:LQdQPP00K7Ej5P`okb0gvR2@::,0*37
!AIVDM,1,1,,A,15A8RL0000K7GLQP`i7=Tq4L2h3L,0*48
$GPGGA,220617,5448.6055,S,06818.0148,W,1,12,1.5,30,M,,M,,*78
$IIMWV,301,R,16.4,M,A*11
$GPGLL,5448.6055,S,06818.0148,W,220617,A*24
$IIXDR,C,0.0,C,ID1,H,0,P,ID2,P,0.000,B,ID3*49
!AIVDM,1,1,,A,1EA8RL0000K7GLQP`i7=Tq4L2000,0*1F
$GPHDT,290.6,T*38
!AIVDM,1,1,,A,13e0ld002?K7`7QP`FS4KSVR0@:I,0*00
!AIVDM,1,1,,A,1JLR1ohP3Fs:braPUJk;7?vR2000,0*59
$GPVTG,265.7,T,253.2,M,0.0,N,0.0,K*4E
$GPZDA,220618,14,02,2020,00,00*40
$GPGGA,220618,5448.6055,S,06818.0148,W,1,12,1.5,30,M,,M,,*77
$IIMWV,303,R,16.7,M,A*10
$GPGLL,5448.6055,S,06818.0148,W,220618,A*2B
$IIXDR,C,0.0,C,ID1,H,0,P,ID2,P,0.000,B,ID3*49
$GPHDT,290.6,T*38
!AIVDM,1,1,,B,1:LR1ohP3Fs:boaPUJo;7OvT2000,0*45
$GPVTG,257.8,T,245.3,M,0.0,N,0.0,K*46
$GPZDA,220619,14,02,2020,00,00*41
$GPGGA,220619,5448.6054,S,06818.0148,W,1,12,1.5,30,M,,M,,*77
$IIMWV,303,R,16.7,M,A*10
$GPGLL,5448.6054,S,06818.0148,W,220619,A*2B
$IIXDR,C,0.0,C,ID1,H,0,P,ID2,P,0.000,B,ID3*49
!AIVDM,2,1,4,A,5:LR1R02?k:TiOG7ON0nmB0<4hE@618u<58Tv21@>hF8<4W@0CUDj5@B@H88,0*32
!AIVDM,2,2,4,A,88888888880,2*20
$GPHDT,290.6,T*38
!AIVDM,1,1,,B,4h6cnrAv@WF6Cs>MsMPRfki026hH,0*6F
!AIVDM,1,1,,B,1JkJak?P?w<tSF0l4Q@>4?wp0000,0*44
$GPVTG,233.5,T,221.0,M,0.0,N,0.0,K*48
$GPZDA,220620,14,02,2020,00,00*4B
$GPGGA,220620,5448.6054,S,06818.0148,W,1,12,1.5,29,M,,M,,*75
$IIMWV,304,R,17.0,M,A*11
$GPGLL,5448.6054,S,06818.0148,W,220620,A*21
!AIVDM,1,1,,A,1D4UN=0v1fK>uiKPOUHDF3B`0000,0*63
$IIXDR,C,0.0,C,ID1,H,0,P,ID2,P,0.000,B,ID3*49
$GPHDT,290.5,T*3B
$GPVTG,230.1,T,217.6,M,0.0,N,0.0,K*4C
$GPZDA,220621,14,02,2020,00,00*4A
$GPGGA,220621,5448.6054,S,06818.0147,W,1,12,1.5,29,M,,M,,*7B
!AIVDM,1,1,,B,14`Utg@024K7agsP`Q0K?prb0@<T,0*24
$IIMWV,305,R,17.4,M,A*14
$GPGLL,5448.6054,S,06818.0147,W,220621,A*2F
$IIXDR,C,0.0,C,ID1,H,0,P,ID2,P,0.000,B,ID3*49
!AIVDM,1,1,,B,1JLQd90P00K=g;SPStu3MOvb2000,0*22
$GPHDT,290.5,T*3B
$GPVTG,236.5,T,224.0,M,0.0,N,0.0,K*48
$GPZDA,220622,14,02,2020,00,00*49
!AIVDM,2,1,5,B,55A8RL02A3fk<I<40005=AE8T4pv0TT000000016A`D?:4VE0FEDj5@B@@00,0*7C
!AIVDM,2,2,5,B,00000000000,2*22
$GPGGA,220622,5448.6054,S,06818.0147,W,1,12,1.5,29,M,,M,,*78
$IIMWV,307,R,17.4,M,A*16
$GPGLL,5448.6054,S,06818.0147,W,220622,A*2C
$IIXDR,C,0.0,C,ID1,H,0,P,ID2,P,0.000,B,ID3*49
$GPHDT,290.5,T*3B
!AIVDM,1,1,,B,3:LR1ohP3Es:bc9PUK5c1?vd21mQ,0*68
$GPVTG,226.7,T,214.2,M,0.0,N,0.0,K*4A
$GPZDA,220623,14,02,2020,00,00*48
!AIVDM,1,1,,B,13e0ld002?K7`AaP`F@TJkVd08=c,0*6C
$GPGGA,220623,5448.6054,S,06818.0147,W,1,12,1.5,29,M,,M,,*79
!AIVDM,1,1,,B,1:LR1R001mK9lVCPUgFrmpVh0<0P,0*1D
$IIMWV,309,R,17.0,M,A*1C
$GPGLL,5448.6054,S,06818.0147,W,220623,A*2D
$IIXDR,C,0.0,C,ID1,H,0,P,ID2,P,0.000,B,ID3*49
$GPHDT,290.5,T*3B
!AIVDM,1,1,,B,13a0RF0PAiK<<?IPTk1;68lf0H>4,0*04
$GPVTG,220.4,T,207.9,M,0.0,N,0.0,K*46
!AIVDM,1,1,,B,1Ca0RF0PAiK<<?IPTk1;68lf0000,0*06
$GPZDA,220624,14,02,2020,00,00*4F
!AIVDM,1,1,,A,33aFdD5000K7F;7P`jg9tq6j0DWr,0*1E
$GPGGA,220624,5448.6054,S,06818.0147,W,1,12,1.5,29,M,,M,,*7E
$IIMWV,308,R,16.7,M,A*1B
$GPGLL,5448.6054,S,06818.0147,W,220624,A*2A
$IIXDR,C,0.0,C,ID1,H,0,P,ID2,P,0.000,B,ID3*49
$GPHDT,290.4,T*3A
!AIVDM,2,1,6,A,5D4UN=01`74=D=Hd000e9E`Dq<Q@E8p00000000T7@p2<4e`0>UFH3EQ0000,0*38
!AIVDM,2,2,6,A,00000000000,2*22
$GPVTG,217.2,T,204.7,M,0.0,N,0.0,K*49
$GPZDA,220625,14,02,2020,00,00*4E
!AIVDM,1,1,,B,4h6cnniv@WF6Hs7FrqP`vh102@>n,0*10
$GPGGA,220625,5448.6054,S,06818.0147,W,1,12,1.5,29,M,,M,,*7F
$IIMWV,303,R,16.5,M,A*12
$GPGLL,5448.6054,S,06818.0147,W,220625,A*2B
$IIXDR,C,0.0,C,ID1,H,0,P,ID2,P,0.000,B,ID3*49
$GPHDT,290.4,T*3A
!AIVDM,1,1,,A,1:kJak?P?w<tSF0l4Q@>4?wp0`?8,0*60
$GPVTG,217.5,T,205.0,M,0.0,N,0.0,K*48
$GPZDA,220626,14,02,2020,00,00*4D
$GPGGA,220626,5448.6054,S,06818.0147,W,1,12,1.5,29,M,,M,,*7C
$IIMWV,305,R,16.5,M,A*14
$GPGLL,5448.6054,S,06818.0147,W,220626,A*28
$IIXDR,C,0.0,C,ID1,H,0,P,ID2,P,0.000,B,ID3*49
!AIVDM,1,1,,A,1:M31v0P00s7EReP`ofKNwvl28?W,0*71
$GPHDT,290.3,T*3D
$GPVTG,215.0,T,202.5,M,0.0,N,0.0,K*4D
$GPZDA,220627,14,02,2020,00,00*4C
$GPGGA,220627,5448.6053,S,06818.0146,W,1,12,1.5,29,M,,M,,*7B
$IIMWV,305,R,16.4,M,A*15
$GPGLL,5448.6053,S,06818.0146,W,220627,A*2F
$IIXDR,C,0.0,C,ID1,H,0,P,ID2,P,0.000,B,ID3*49
$GPHDT,290.3,T*3D
!AIVDM,1,1,,B,Dh6cnniGP@fqJ`@fqMh@fp0,2*49
$GPVTG,213.6,T,201.1,M,0.0,N,0.0,K*4A
$GPZDA,220628,14,02,2020,00,00*43
!AIVDM,1,1,,A,1:LQdQPP00K7EjCP`okI5wvp2@@`,0*7E
!AIVDM,1,1,,B,15A8RL0000K7GLQP`i7=Tq4j2l0?,0*19
$GPGGA,220628,5448.6053,S,06818.0146,W,1,12,1.5,29,M,,M,,*74
$IIMWV,302,R,16.4,M,A*12
$GPGLL,5448.6053,S,06818.0146,W,220628,A*20
$IIXDR,C,0.0,C,ID1,H,0,P,ID2,P,0.000,B,ID3*49
!AIVDM,1,1,,B,1EA8RL0000K7GLQP`i7=Tq4j2000,0*3A
$GPHDT,290.2,T*3C
$GPVTG,211.1,T,198.6,M,0.0,N,0.0,K*4B
$GPZDA,220629,14,02,2020,00,00*42
$GPGGA,220629,5448.6053,S,06818.0146,W,1,12,1.5,29,M,,M,,*75
$IIMWV,306,R,16.3,M,A*11
$GPGLL,5448.6053,S,06818.0146,W,220629,A*21
$IIXDR,C,0.0,C,ID1,H,0,P,ID2,P,0.000,B,ID3*49
$GPHDT,290.2,T*3C
!AIVDM,1,1,,A,4h6cnrAv@WF6Ms>MsOPRfki02@AU,0*22
!AIVDM,1,1,,A,13e0ld002=K7`OAP`Eo4I3Vr0<0?,0*17
$GPVTG,207.6,T,195.1,M,0.0,N,0.0,K*41
$GPZDA,220630,14,02,2020,00,00*4A
$GPGGA,220630,5448.6053,S,06818.0146,W,1,12,1.5,29,M,,M,,*7D
$IIMWV,307,R,16.0,M,A*13
$GPGLL,5448.6053,S,06818.0146,W,220630,A*29
$IIXDR,C,0.0,C,ID1,H,0,P,ID2,P,0.000,B,ID3*49
$GPHDT,290.1,T*3F
$GPVTG,212.2,T,199.7,M,0.0,N,0.0,K*4B
!AIVDM,1,1,,A,1JLQd90P02K=g;WPSttSO?vv2000,0*20
$GPZDA,220631,14,02,2020,00,00*4B
!AIVDM,1,1,,B,1D4UN=02AfK>v19POTjT<SBv0000,0*42
$GPGGA,220631,5448.6053,S,06818.0146,W,1,12,1.5,29,M,,M,,*7C
!AIVDM,1,1,,A,14`Utg@025K7aM3P`QLK@Hrv0D0B,0*7D
$IIMWV,307,R,15.7,M,A*17
$GPGLL,5448.6053,S,06818.0146,W,220631,A*28
$IIXDR,C,0.0,C,ID1,H,0,P,ID2,P,0.000,B,ID3*49
$GPHDT,290.1,T*3F
$GPVTG,211.7,T,199.2,M,0.0,N,0.0,K*48
$GPZDA,220632,14,02,2020,00,00*48
$GPGGA,220632,5448.6053,S,06818.0145,W,1,12,1.4,29,M,,M,,*7D
$IIMWV,305,R,15.6,M,A*14
$GPGLL,5448.6053,S,06818.0145,W,220632,A*28
$IIXDR,C,0.0,C,ID1,H,0,P,ID2,P,0.000,B,ID3*49
$GPHDT,290.0,T*3E
!AIVDM,1,1,,A,1:LR1R001nK9lFcPUgOblHW20@CE,0*4C
$GPVTG,205.6,T,193.1,M,0.0,N,0.0,K*45
$GPZDA,220633,14,02,2020,00,00*49
$GPGGA,220633,5448.6053,S,06818.0145,W,1,12,1.4,29,M,,M,,*7C
$IIMWV,305,R,15.6,M,A*14
$GPGLL,5448.6053,S,06818.0145,W,220633,A*29
$IIXDR,C,0.0,C,ID1,H,0,P,ID2,P,0.000,B,ID3*49
$GPHDT,290.0,T*3E
!AIVDM,1,1,,B,1:MBuP01A9s7mUQP`0>4HCa228Cm,0*26
!AIVDM,1,1,,A,13a0RF001hK<;tQPTkCs1`i20<0C,0*7B
!AIVDM,1,1,,B,13mOvJ01AfK9<o7PV2DCuC908D0@,0*09
$GPVTG,208.0,T,195.5,M,0.0,N,0.0,K*4C
$GPZDA,220634,14,02,2020,00,00*4E
$GPGGA,220634,5448.6053,S,06818.0145,W,1,12,1.4,29,M,,M,,*7B
$IIMWV,306,R,15.4,M,A*15
$GPGLL,5448.6053,S,06818.0145,W,220634,A*2E
$IIXDR,C,0.0,C,ID1,H,0,P,ID2,P,0.000,B,ID3*49
$GPHDT,290.0,T*3E
!AIVDM,2,1,7,B,53a=JT41haoI0GKSG6058=@T>1=Dq8U<F222221J1hT744U;0=mDj5@B@H88,0*09
!AIVDM,2,2,7,B,88888888880,2*20
!AIVDM,1,1,,B,1DW`ej001bK?MuQP=`00bPO60000,0*60
!AIVDM,1,1,,B,1:M31v0P00s7ERcP`ofcDww42@D`,0*3B
$GPVTG,214.4,T,201.9,M,0.0,N,0.0,K*47
$GPZDA,220635,14,02,2020,00,00*4F
!AIVDM,1,1,,A,4h6cnniv@WF6Rs7FrqP`vh102<0B,0*57
$GPGGA,220635,5448.6053,S,06818.0145,W,1,12,1.4,29,M,,M,,*7A
$IIMWV,307,R,15.6,M,A*16
$GPGLL,5448.6053,S,06818.0145,W,220635,A*2F
$IIXDR,C,0.0,C,ID1,H,0,P,ID2,P,0.000,B,ID3*49
!AIVDM,1,1,,B,3:LR1ohP3Es:b1qPUKS:n?w621kA,0*57
$GPHDT,289.9,T*3F
!AIVDM,1,1,,B,3JLR1ohP3Es:b1qPUKS:n?w62000,0*0C
!AIVDM,1,1,,B,13e0ld002=K7`c1P`EOTICW60@E8,0*33
$GPVTG,212.0,T,199.5,M,0.0,N,0.0,K*4B
$GPZDA,220636,14,02,2020,00,00*4C
$GPGGA,220636,5448.6053,S,06818.0145,W,1,12,1.4,29,M,,M,,*79
$IIMWV,310,R,15.4,M,A*12
$GPGLL,5448.6053,S,06818.0145,W,220636,A*2C
$IIXDR,C,0.0,C,ID1,H,0,P,ID2,P,0.000,B,ID3*49
$GPHDT,289.9,T*3F
$GPVTG,206.2,T,193.7,M,0.0,N,0.0,K*44
$GPZDA,220637,14,02,2020,00,00*4D
!AIVDM,1,1,,A,Dh6cnniI4@fqL<@fqMh@fp0,2*7A
$GPGGA,220637,5448.6052,S,06818.0144,W,1,12,1.4,29,M,,M,,*78
$IIMWV,306,R,15.2,M,A*13
!AIVDM,1,1,,B,1:LQdQPP00K7EjCP`okP0?w:2D0?,0*49
$GPGLL,5448.6052,S,06818.0144,W,220637,A*2D
$IIXDR,C,0.0,C,ID1,H,0,P,ID2,P,0.000,B,ID3*49
$GPHDT,289.8,T*3E
$GPVTG,210.3,T,197.8,M,0.0,N,0.0,K*49
$GPZDA,220638,14,02,2020,00,00*42
$GPGGA,220638,5448.6052,S,06818.0144,W,1,12,1.4,29,M,,M,,*77
$IIMWV,305,R,14.8,M,A*1B
$GPGLL,5448.6052,S,06818.0144,W,220638,A*22
$IIXDR,C,0.0,C,ID1,H,0,P,ID2,P,0.000,B,ID3*49
$GPHDT,289.8,T*3E
!AIVDM,1,1,,A,15A8RL00@0K7GLQP`i7=Tq562d0?,0*3F
!AIVDM,1,1,,A,1EA8RL00@0K7GLQP`i7=Tq562000,0*14
$GPVTG,215.5,T,203.0,M,0.0,N,0.0,K*4C
$GPZDA,220639,14,02,2020,00,00*43
$GPGGA,220639,5448.6052,S,06818.0144,W,1,12,1.4,29,M,,M,,*76
$IIMWV,305,R,14.7,M,A*14
$GPGLL,5448.6052,S,06818.0144,W,220639,A*23
$IIXDR,C,0.0,C,ID1,H,0,P,ID2,P,0.000,B,ID3*49
$GPHDT,289.8,T*3E
!AIVDM,1,1,,B,4h6cnrAv@WF6Ws>MsOPRfkQ026hH,0*41
!AIVDM,1,1,,B,1JkJak?P?w<tSF0l4Q@>4?wp0000,0*44
$GPVTG,217.3,T,204.8,M,0.0,N,0.0,K*47
$GPZDA,220640,14,02,2020,00,00*4D
$GPGGA,220640,5448.6052,S,06818.0144,W,1,12,1.4,29,M,,M,,*78
$IIMWV,298,R,14.6,M,A*10
$GPGLL,5448.6052,S,06818.0144,W,220640,A*2D
$IIXDR,C,0.0,C,ID1,H,0,P,ID2,P,0.000,B,ID3*49
$GPHDT,289.8,T*3E
!AIVDM,1,1,,B,14`Utg@024K7a<3P`Qms?pq@00SN,0*7E
!AIVDM,1,1,,A,13e0ld002?K7`m1P`E=TJ3W@08H7,0*31
$GPVTG,215.9,T,203.4,M,0.0,N,0.0,K*44
$GPZDA,220641,14,02,2020,00,00*4C
$GPGGA,220641,5448.6052,S,06818.0144,W,1,12,1.4,29,M,,M,,*79
!AIVDM,1,1,,B,BDn2Wg00ANk:A0H98l90OwlUn000,0*13
$IIMWV,308,R,14.6,M,A*18
$GPGLL,5448.6052,S,06818.0144,W,220641,A*2C
$IIXDR,C,0.0,C,ID1,H,0,P,ID2,P,0.000,B,ID3*49
$GPHDT,289.7,T*31
!AIVDM,1,1,,B,1JLQd90P01K=g;UPStt3IwwB2000,0*39
$GPVTG,216.8,T,204.3,M,0.0,N,0.0,K*46
$GPZDA,220642,14,02,2020,00,00*4F
$GPGGA,220642,5448.6052,S,06818.0143,W,1,12,1.4,29,M,,M,,*7D
$IIMWV,303,R,14.5,M,A*10
$GPGLL,5448.6052,S,06818.0143,W,220642,A*28
$IIXDR,C,0.0,C,ID1,H,0,P,ID2,P,0.000,B,ID3*49
$GPHDT,289.7,T*31
!AIVDM,1,1,,B,1:LR1R001nK9l53PUgbbl8aF0D0P,0*11
!AIVDM,1,1,,B,33a=JT5000K7E`gP`lkK;q5F0DuJ,0*52
$GPVTG,228.7,T,216.2,M,0.0,N,0.0,K*46
$GPZDA,220643,14,02,2020,00,00*4E
$GPGGA,220643,5448.6052,S,06818.0143,W,1,12,1.4,29,M,,M,,*7C
$IIMWV,298,R,14.1,M,A*17
$GPGLL,5448.6052,S,06818.0143,W,220643,A*29
$IIXDR,C,0.0,C,ID1,H,0,P,ID2,P,0.000,B,ID3*49
$GPHDT,289.7,T*31
$GPVTG,230.0,T,217.5,M,0.0,N,0.0,K*4E
!AIVDM,1,1,,B,13a0RF001hK<;aKPTkRJu8gF08It,0*73
$GPZDA,220644,14,02,2020,00,00*49
$GPGGA,220644,5448.6052,S,06818.0143,W,1,12,1.4,29,M,,M,,*7B
!AIVDM,1,1,,B,1Ca0RF001hK<;aKPTkRJu8gF0000,0*36
$IIMWV,300,R,13.5,M,A*14
$GPGLL,5448.6052,S,06818.0143,W,220644,A*2E
$IIXDR,C,0.0,C,ID1,H,0,P,ID2,P,0.000,B,ID3*49
$GPHDT,289.7,T*31
!AIVDM,1,1,,A,1DW`ej001aK?N0aP=a;0`0MJ0000,0*00
$GPVTG,226.7,T,214.2,M,0.0,N,0.0,K*4A
$GPZDA,220645,14,02,2020,00,00*48
!AIVDM,1,1,,B,4h6cnniv@WF6ds7FroP`vh102HJT,0*64
$GPGGA,220645,5448.6052,S,06818.0143,W,1,12,1.4,29,M,,M,,*7A
$IIMWV,308,R,13.6,M,A*1F
$GPGLL,5448.6052,S,06818.0143,W,220645,A*2F
$IIXDR,C,0.0,C,ID1,H,0,P,ID2,P,0.000,B,ID3*49
$GPHDT,289.7,T*31
!AIVDM,1,1,,A,1:M31v0P00s7ERuP`ofcBgwJ2<0<,0*12
!AIVDM,1,1,,A,1:kJak?P?w<tSF0l4Q@>4?wp0d0H,0*1B
$GPVTG,230.4,T,217.9,M,0.0,N,0.0,K*46
$GPZDA,220646,14,02,2020,00,00*4B
$GPGGA,220646,5448.6052,S,06818.0143,W,1,12,1.4,29,M,,M,,*79
$IIMWV,301,R,14.3,M,A*14
$GPGLL,5448.6052,S,06818.0143,W,220646,A*2C
$IIXDR,C,0.0,C,ID1,H,0,P,ID2,P,0.000,B,ID3*49
$GPHDT,289.6,T*30
$GPVTG,234.9,T,222.4,M,0.0,N,0.0,K*44
$GPZDA,220647,14,02,2020,00,00*4A
!AIVDM,1,1,,A,1:LQdQPP00K7Ej;P`ojH<gwN26hH,0*56
$GPGGA,220647,5448.6052,S,06818.0142,W,1,12,1.4,29,M,,M,,*79
$IIMWV,303,R,15.1,M,A*15
!AIVDM,1,1,,B,15A8RL0wh0K7GLQP`i7=Tq5H2VhH,0*30
!AIVDM,1,1,,B,13e0ld002?K7a2iP`DiTI3WN0<0?,0*18
$GPGLL,5448.6052,S,06818.0142,W,220647,A*2C
$IIXDR,C,0.0,C,ID1,H,0,P,ID2,P,0.000,B,ID3*49
$GPHDT,289.6,T*30
!AIVDM,1,1,,B,1EA8RL0wh0K7GLQP`i7=Tq5H2000,0*06
!AIVDM,1,1,,B,Dh6cnnh``@fpch@fpfp@fp0,2*4D
$GPVTG,237.6,T,225.1,M,0.0,N,0.0,K*4A
$GPZDA,220648,14,02,2020,00,00*45
$GPGGA,220648,5448.6052,S,06818.0142,W,1,12,1.4,29,M,,M,,*76
$IIMWV,294,R,14.9,M,A*13
$GPGLL,5448.6052,S,06818.0142,W,220648,A*23
$IIXDR,C,0.0,C,ID1,H,0,P,ID2,P,0.000,B,ID3*49
$GPHDT,289.6,T*30
$GPVTG,237.2,T,224.7,M,0.0,N,0.0,K*49
$GPZDA,220649,14,02,2020,00,00*44
$GPGGA,220649,5448.6052,S,06818.0142,W,1,12,1.4,29,M,,M,,*77
$IIMWV,299,R,14.2,M,A*15
$GPGLL,5448.6052,S,06818.0142,W,220649,A*22
$IIXDR,C,0.0,C,ID1,H,0,P,ID2,P,0.000,B,ID3*49
$GPHDT,289.5,T*33
!AIVDM,1,1,,A,14`Utg@024K7`s3P`R>K>HqR08M=,0*15
!AIVDM,1,1,,A,4h6cnrAv@WF6is>MsOPRfkQ02@MC,0*24
$GPVTG,241.2,T,228.7,M,0.0,N,0.0,K*44
$GPZDA,220650,14,02,2020,00,00*4C
$GPGGA,220650,5448.6052,S,06818.0142,W,1,12,1.4,29,M,,M,,*7F
$IIMWV,300,R,13.7,M,A*16
$GPGLL,5448.6052,S,06818.0142,W,220650,A*2A
$IIXDR,C,0.0,C,ID1,H,0,P,ID2,P,0.000,B,ID3*49
$GPHDT,289.5,T*33
$GPVTG,240.7,T,228.2,M,0.0,N,0.0,K*45
$GPZDA,220651,14,02,2020,00,00*4D
$GPGGA,220651,5448.6052,S,06818.0142,W,1,12,1.4,29,M,,M,,*7E
$IIMWV,299,R,13.7,M,A*17
$GPGLL,5448.6052,S,06818.0142,W,220651,A*2B
$IIXDR,C,0.0,C,ID1,H,0,P,ID2,P,0.000,B,ID3*49
$GPHDT,289.5,T*33
!AIVDM,1,1,,B,1D4UN=0uifK>vQEPOT34>CCV0000,0*3B
$GPVTG,240.1,T,227.6,M,0.0,N,0.0,K*48
$GPZDA,220652,14,02,2020,00,00*4E
$GPGGA,220652,5448.6052,S,06818.0142,W,1,12,1.4,29,M,,M,,*7D
$IIMWV,304,R,13.9,M,A*1C
$GPGLL,5448.6052,S,06818.0142,W,220652,A*28
$IIXDR,C,0.0,C,ID1,H,0,P,ID2,P,0.000,B,ID3*49
$GPHDT,289.4,T*32
!AIVDM,1,1,,A,1:LR1R001nK9kkQPUgjrlpab0HNv,0*09
!AIVDM,1,1,,B,1:MBuP0vi9s7mpuPWw`4FSW`2L0A,0*37
!AIVDM,1,1,,A,1JLQd90P01K=g;QPSts3Q?w`2000,0*4B
$GPVTG,241.3,T,228.8,M,0.0,N,0.0,K*4A
$GPZDA,220653,14,02,2020,00,00*4F
$GPGGA,220653,5448.6052,S,06818.0142,W,1,12,1.4,29,M,,M,,*7C
$IIMWV,296,R,14.1,M,A*19
$GPGLL,5448.6052,S,06818.0142,W,220653,A*29
$IIXDR,C,0.0,C,ID1,H,0,P,ID2,P,0.000,B,ID3*49
$GPHDT,289.4,T*32
!AIVDM,1,1,,B,13mOvJ01AfK9=F5PV1pku39V80S`,0*1D
!AIVDM,1,1,,A,13a0RF001gK<;FAPTkgrqpgb0HOd,0*51
$GPVTG,240.9,T,228.4,M,0.0,N,0.0,K*4D
$GPZDA,220654,14,02,2020,00,00*48
$GPGGA,220654,5448.6052,S,06818.0141,W,1,12,1.4,29,M,,M,,*78
$IIMWV,300,R,13.9,M,A*18
$GPGLL,5448.6052,S,06818.0141,W,220654,A*2D
$IIXDR,C,0.0,C,ID1,H,0,P,ID2,P,0.000,B,ID3*49
$GPHDT,289.4,T*32
!AIVDM,1,1,,B,1DW`ej001cK?N6qP=bF0`0Mf0000,0*45
$GPVTG,238.2,T,225.7,M,0.0,N,0.0,K*47
!AIVDM,1,1,,B,1:M31v0P00s7ES7P`ofc4wwd2@PH,0*72
$GPZDA,220655,14,02,2020,00,00*49
!AIVDM,1,1,,A,4h6cnniv@WF6ns7FroP`vh102D0A,0*0E
$GPGGA,220655,5448.6052,S,06818.0141,W,1,12,1.4,29,M,,M,,*79
$IIMWV,295,R,13.7,M,A*1B
$GPGLL,5448.6052,S,06818.0141,W,220655,A*2C
$IIXDR,C,0.0,C,ID1,H,0,P,ID2,P,0.000,B,ID3*49
$GPHDT,289.4,T*32
$GPVTG,234.9,T,222.4,M,0.0,N,0.0,K*44
$GPZDA,220656,14,02,2020,00,00*4A
$GPGGA,220656,5448.6052,S,06818.0141,W,1,12,1.4,29,M,,M,,*7A
$IIMWV,301,R,13.2,M,A*12
$GPGLL,5448.6052,S,06818.0141,W,220656,A*2F
$IIXDR,C,0.0,C,ID1,H,0,P,ID2,P,0.000,B,ID3*49
$GPHDT,289.4,T*32
$GPVTG,235.4,T,222.9,M,0.0,N,0.0,K*45
$GPZDA,220657,14,02,2020,00,00*4B
!AIVDM,1,1,,A,Dh6cnnhb<@fpeD@fpfp@fp0,2*3A
$GPGGA,220657,5448.6052,S,06818.0141,W,1,12,1.4,29,M,,M,,*7B
$IIMWV,301,R,13.1,M,A*11
$GPGLL,5448.6052,S,06818.0141,W,220657,A*2E
$IIXDR,C,0.0,C,ID1,H,0,P,ID2,P,0.000,B,ID3*49
$GPHDT,289.4,T*32
$GPVTG,232.6,T,220.1,M,0.0,N,0.0,K*4A
!AIVDM,1,1,,B,1:LQdQPP00K7EiwP`oiP0?wl2<0?,0*52
$GPZDA,220658,14,02,2020,00,00*44
$GPGGA,220658,5448.6052,S,06818.0141,W,1,12,1.4,29,M,,M,,*74
$IIMWV,299,R,13.5,M,A*15
!AIVDM,1,1,,A,15A8RL0wh0K7GLQP`i7=Tq5f2VhH,0*1D
$GPGLL,5448.6052,S,06818.0141,W,220658,A*21
$IIXDR,C,0.0,C,ID1,H,0,P,ID2,P,0.000,B,ID3*49
$GPHDT,289.4,T*32
!AIVDM,1,1,,A,1EA8RL0wh0K7GLQP`i7=Tq5f2000,0*2B
$GPVTG,227.5,T,215.0,M,0.0,N,0.0,K*4A
$GPZDA,220659,14,02,2020,00,00*45
$GPGGA,220659,5448.6052,S,06818.0141,W,1,12,1.4,29,M,,M,,*75
$IIMWV,303,R,14.1,M,A*14
!AIVDM,1,1,,B,13e0ld002?K7aJqP`D6TGSWn08Ro,0*5F
$GPGLL,5448.6052,S,06818.0141,W,220659,A*20
$IIXDR,C,0.0,C,ID1,H,0,P,ID2,P,0.000,B,ID3*49
$GPHDT,289.4,T*32
!AIVDM,1,1,,B,14`Utg@024K7``7P`R`c=8qn06hH,0*66
!AIVDM,1,1,,B,4h6cnrAv@WF6ss>MsQPRfki02L0=,0*14
!AIVDM,1,1,,B,1JkJak?P?w<tSF0l4Q@>4?wp0000,0*44
$GPVTG,224.2,T,211.7,M,0.0,N,0.0,K*4D
!AIVDM,1,1,,A,1D4UN=0uQjK>vgePOSg4>kB00000,0*06
$GPZDA,220700,14,02,2020,00,00*48
$GPGGA,220700,5448.6052,S,06818.0141,W,1,12,1.4,29,M,,M,,*78
$IIMWV,298,R,15.0,M,A*17
$GPGLL,5448.6052,S,06818.0141,W,220700,A*2D
$IIXDR,C,0.0,C,ID1,H,0,P,ID2,P,0.000,B,ID3*49
$GPHDT,289.4,T*32
$GPVTG,224.3,T,211.8,M,0.0,N,0.0,K*43
$GPZDA,220701,14,02,2020,00,00*49
!AIVDM,1,1,,B,1JLQd90P00K=g;MPSts3Ogv22000,0*40
$GPGGA,220701,5448.6052,S,06818.0141,W,1,12,1.4,29,M,,M,,*79
$IIMWV,301,R,15.1,M,A*17
$GPGLL,5448.6052,S,06818.0141,W,220701,A*2C
$IIXDR,C,0.0,C,ID1,H,0,P,ID2,P,0.000,B,ID3*49
$GPHDT,289.5,T*33
!AIVDM,1,1,,B,1:LR1R001nK9kSoPUgtbn8b400Su,0*7B
$GPVTG,227.5,T,215.0,M,0.0,N,0.0,K*4A
$GPZDA,220702,14,02,2020,00,00*4A
$GPGGA,220702,5448.6052,S,06818.0140,W,1,12,1.4,29,M,,M,,*7B
$IIMWV,294,R,14.8,M,A*12
$GPGLL,5448.6052,S,06818.0140,W,220702,A*2E
$IIXDR,C,0.0,C,ID1,H,0,P,ID2,P,0.000,B,ID3*49
$GPHDT,289.4,T*32
!AIVDM,1,1,,A,1:MBuP01A9s7n3=PWwD4HSV4281a,0*79
$GPVTG,221.5,T,209.0,M,0.0,N,0.0,K*41
$GPZDA,220703,14,02,2020,00,00*4B
$GPGGA,220703,5448.6052,S,06818.0140,W,1,12,1.4,29,M,,M,,*7A
!AIVDM,1,1,,A,13mOvJ001fK9=V3PV1aSuC828@22,0*06
$IIMWV,304,R,13.7,M,A*12
$GPGLL,5448.6052,S,06818.0140,W,220703,A*2F
$IIXDR,C,0.0,C,ID1,H,0,P,ID2,P,0.000,B,ID3*49
$GPHDT,289.4,T*32
!AIVDM,1,1,,B,1Ca0RF001hK<;2wPTksroHf60000,0*5B
$GPVTG,222.6,T,210.1,M,0.0,N,0.0,K*48
$GPZDA,220704,14,02,2020,00,00*4C
$GPGGA,220704,5448.6052,S,06818.0140,W,1,12,1.4,29,M,,M,,*7D
$IIMWV,303,R,12.8,M,A*1B
$GPGLL,5448.6052,S,06818.0140,W,220704,A*28
$IIXDR,C,0.0,C,ID1,H,0,P,ID2,P,0.000,B,ID3*49
$GPHDT,289.4,T*32
$GPVTG,223.8,T,211.3,M,0.0,N,0.0,K*44
$GPZDA,220705,14,02,2020,00,00*4D
!AIVDM,1,1,,B,4h6cnniv@WF74s7FrmP`vgi02H38,0*75
$GPGGA,220705,5448.6052,S,06818.0140,W,1,12,1.4,29,M,,M,,*7C
!AIVDM,1,1,,A,33e0ld002@K7aTiP`Ck4HST8007C,0*06
$IIMWV,292,R,12.9,M,A*13
$GPGLL,5448.6052,S,06818.0140,W,220705,A*29
$IIXDR,C,0.0,C,ID1,H,0,P,ID2,P,0.000,B,ID3*49
$GPHDT,289.4,T*32
$GPVTG,226.4,T,213.9,M,0.0,N,0.0,K*45
!AIVDM,2,1,8,A,53e0ld82EOggTP7CKW9<<DpT>0D<hU1<D0000000<q1;;<`?0>ASmDSRAD`0,0*3F
!AIVDM,2,2,8,A,PF@00000000,2*4A
$GPZDA,220706,14,02,2020,00,00*4E
$GPGGA,220706,5448.6053,S,06818.0140,W,1,12,1.4,29,M,,M,,*7E
$IIMWV,304,R,13.6,M,A*13
$GPGLL,5448.6053,S,06818.0140,W,220706,A*2B
$IIXDR,C,0.0,C,ID1,H,0,P,ID2,P,0.000,B,ID3*49
$GPHDT,289.4,T*32
!AIVDM,1,1,,A,1:kJak?P?w<tSF0l4Q@>4?wp0PS5,0*31
$GPVTG,224.7,T,212.2,M,0.0,N,0.0,K*4E
$GPZDA,220707,14,02,2020,00,00*4F
$GPGGA,220707,5448.6053,S,06818.0140,W,1,12,1.4,29,M,,M,,*7F
$IIMWV,296,R,14.5,M,A*1D
$GPGLL,5448.6053,S,06818.0140,W,220707,A*2A
$IIXDR,C,0.0,C,ID1,H,0,P,ID2,P,0.000,B,ID3*49
$GPHDT,289.4,T*32
!AIVDM,1,1,,B,15A8RL0wh0K7GLQP`i7=Tq482d0?,0*5C
!AIVDM,1,1,,B,Dh6cnnj6H@fr9P@fp00@fp0,2*47
$GPVTG,224.0,T,211.5,M,0.0,N,0.0,K*4D
$GPZDA,220708,14,02,2020,00,00*40
!AIVDM,1,1,,A,1:LQdQPP00K7Ej7P`oh@0?v@2D0?,0*56
$GPGGA,220708,5448.6053,S,06818.0140,W,1,12,1.4,29,M,,M,,*70
$IIMWV,306,R,14.4,M,A*14
$GPGLL,5448.6053,S,06818.0140,W,220708,A*25
$IIXDR,C,0.0,C,ID1,H,0,P,ID2,P,0.000,B,ID3*49
$GPHDT,289.4,T*32
$GPVTG,229.0,T,216.5,M,0.0,N,0.0,K*47
$GPZDA,220709,14,02,2020,00,00*41
$GPGGA,220709,5448.6053,S,06818.0140,W,1,12,1.4,29,M,,M,,*71
$IIMWV,308,R,14.3,M,A*1D
$GPGLL,5448.6053,S,06818.0140,W,220709,A*24
$IIXDR,C,0.0,C,ID1,H,0,P,ID2,P,0.000,B,ID3*49
$GPHDT,289.3,T*35
!AIVDM,1,1,,A,4h6cnrAv@WF79s>MsSPRfki026hL,0*0D
$GPVTG,229.8,T,217.3,M,0.0,N,0.0,K*48
$GPZDA,220710,14,02,2020,00,00*49
$GPGGA,220710,5448.6053,S,06818.0140,W,1,12,1.4,30,M,,M,,*71
$IIMWV,303,R,14.1,M,A*14
!AIVDM,1,1,,A,BDn2Wg00B>k:HnH98bhvwwU5n000,0*4C
$GPGLL,5448.6053,S,06818.0140,W,220710,A*2C
$IIXDR,C,0.0,C,ID1,H,0,P,ID2,P,0.000,B,ID3*49
$GPHDT,289.3,T*35
!AIVDM,1,1,,A,1JLQd90P00K=g;OPStsCPgvD2000,0*58
!AIVDM,1,1,,B,13e0ld002@K7ahqP`CM4I3TD000I,0*15
$GPVTG,233.4,T,220.9,M,0.0,N,0.0,K*41
!AIVDM,1,1,,A,14`Utg@024K7`AGP`S7s=`pD06hL,0*05
!AIVDM,1,1,,B,1D4UN=0uQcK>w1=POSCT=C@D0000,0*1A
$GPZDA,220711,14,02,2020,00,00*48
$GPGGA,220711,5448.6053,S,06818.0140,W,1,12,1.4,30,M,,M,,*70
$IIMWV,307,R,14.2,M,A*13
$GPGLL,5448.6053,S,06818.0140,W,220711,A*2D
$IIXDR,C,0.0,C,ID1,H,0,P,ID2,P,0.000,B,ID3*49
$GPHDT,289.3,T*35
!AIVDM,1,1,,B,1:LR1ohP3Cs:`@aPULqboOvF2D0@,0*62
$GPVTG,236.4,T,223.9,M,0.0,N,0.0,K*47
$GPZDA,220712,14,02,2020,00,00*4B
$GPGGA,220712,5448.6053,S,06818.0140,W,1,12,1.4,30,M,,M,,*73
$IIMWV,300,R,14.2,M,A*14
$GPGLL,5448.6053,S,06818.0140,W,220712,A*2E
$IIXDR,C,0.0,C,ID1,H,0,P,ID2,P,0.000,B,ID3*49
!AIVDM,1,1,,A,1:LR1R001nK9k?iPUh7bp8bJ00Re,0*2F
$GPHDT,289.3,T*35
$GPVTG,236.1,T,223.6,M,0.0,N,0.0,K*4D
$GPZDA,220713,14,02,2020,00,00*4A
$GPGGA,220713,5448.6053,S,06818.0140,W,1,12,1.4,30,M,,M,,*72
$IIMWV,303,R,13.9,M,A*1B
$GPGLL,5448.6053,S,06818.0140,W,220713,A*2F
$IIXDR,C,0.0,C,ID1,H,0,P,ID2,P,0.000,B,ID3*49
!AIVDM,1,1,,B,1D`Uw8Pvi8s@V0MPIki;Wa:H8000,0*29
$GPHDT,289.3,T*35
$GPVTG,242.2,T,229.7,M,0.0,N,0.0,K*46
$GPZDA,220714,14,02,2020,00,00*4D
$GPGGA,220714,5448.6053,S,06818.0140,W,1,12,1.4,30,M,,M,,*75
$IIMWV,300,R,13.7,M,A*16
!AIVDM,1,1,,B,1:MBuP0vi:s7n?SPWvslIS`L26hL,0*2F
$GPGLL,5448.6053,S,06818.0140,W,220714,A*28
$IIXDR,C,0.0,C,ID1,H,0,P,ID2,P,0.000,B,ID3*49
$GPHDT,289.3,T*35
$GPVTG,238.8,T,226.3,M,0.0,N,0.0,K*4A
$GPZDA,220715,14,02,2020,00,00*4C
!AIVDM,1,1,,A,4h6cnniv@WF7>s7FrmP`vgi026hL,0*2D
!AIVDM,1,1,,B,1:M31v0P01s7ERuP`ogKDgvL20SP,0*3B
$GPGGA,220715,5448.6053,S,06818.0140,W,1,12,1.4,30,M,,M,,*74
$IIMWV,303,R,13.2,M,A*10
$GPGLL,5448.6053,S,06818.0140,W,220715,A*29
$IIXDR,C,0.0,C,ID1,H,0,P,ID2,P,0.000,B,ID3*49
$GPHDT,289.3,T*35
$GPVTG,238.6,T,226.1,M,0.0,N,0.0,K*46
$GPZDA,220716,14,02,2020,00,00*4F
$GPGGA,220716,5448.6053,S,06818.0140,W,1,12,1.4,30,M,,M,,*77
$IIMWV,301,R,12.8,M,A*19
$GPGLL,5448.6053,S,06818.0140,W,220716,A*2A
$IIXDR,C,0.0,C,ID1,H,0,P,ID2,P,0.000,B,ID3*49
$GPHDT,289.3,T*35
$GPVTG,247.0,T,234.5,M,0.0,N,0.0,K*4F
$GPZDA,220717,14,02,2020,00,00*4E
!AIVDM,1,1,,A,Dh6cnnj7t@fr;4@fp00@fp0,2*1F
!AIVDM,1,1,,B,1:LQdQPP00K7Ej;P`oi00?vR2<0?,0*42
!AIVDM,1,1,,A,15A8RL0wP0K7GLQP`i7=Tq4L2d0?,0*13
$GPGGA,220717,5448.6053,S,06818.0140,W,1,12,1.4,30,M,,M,,*76
$IIMWV,305,R,12.7,M,A*12
$GPGLL,5448.6053,S,06818.0140,W,220717,A*2B
$IIXDR,C,0.0,C,ID1,H,0,P,ID2,P,0.000,B,ID3*49
$GPHDT,289.3,T*35
!AIVDM,1,1,,A,13e0ld002?K7aviP`C24H3TR0<0?,0*7D
$GPVTG,243.2,T,230.7,M,0.0,N,0.0,K*4F
$GPZDA,220718,14,02,2020,00,00*41
$GPGGA,220718,5448.6054,S,06818.0139,W,1,12,1.4,30,M,,M,,*70
$IIMWV,306,R,13.2,M,A*15
$GPGLL,5448.6054,S,06818.0139,W,220718,A*2D
$IIXDR,C,0.0,C,ID1,H,0,P,ID2,P,0.000,B,ID3*49
$GPHDT,289.3,T*35
$GPVTG,242.7,T,230.2,M,0.0,N,0.0,K*4E
$GPZDA,220719,14,02,2020,00,00*40
$GPGGA,220719,5448.6054,S,06818.0139,W,1,12,1.4,30,M,,M,,*71
$IIMWV,303,R,13.5,M,A*17
$GPGLL,5448.6054,S,06818.0139,W,220719,A*2C
$IIXDR,C,0.0,C,ID1,H,0,P,ID2,P,0.000,B,ID3*49
$GPHDT,289.3,T*35
!AIVDM,1,1,,B,4h6cnrAv@WF7Cs>MsUPRfl1020S:,0*66
$GPVTG,243.0,T,230.5,M,0.0,N,0.0,K*4F
$GPZDA,220720,14,02,2020,00,00*4A
$GPGGA,220720,5448.6054,S,06818.0139,W,1,12,1.4,30,M,,M,,*7B
$IIMWV,300,R,13.5,M,A*14
$GPGLL,5448.6054,S,06818.0139,W,220720,A*26
$IIXDR,C,0.0,C,ID1,H,0,P,ID2,P,0.000,B,ID3*49
!AIVDM,1,1,,A,1D4UN=0uQfK>wAAPOS>l=C>`0000,0*0F
$GPHDT,289.3,T*35
!AIVDM,2,1,9,B,53aFdD420?WM0CKCKB0E=0E84q`622222222220U2hj2<4Uh0<0D`5Dj8888,0*38
!AIVDM,2,2,9,B,88888888880,2*2E
$GPVTG,242.5,T,230.0,M,0.0,N,0.0,K*4E
!AIVDM,1,1,,B,1JLQd90P00K=g;IPSts00?vb2000,0*30
$GPZDA,220721,14,02,2020,00,00*4B
$GPGGA,220721,5448.6054,S,06818.0139,W,1,12,1.4,30,M,,M,,*7A
!AIVDM,1,1,,B,14`Utg@024K7WvIP`SQc:pn`0<0B,0*0F
$IIMWV,299,R,13.1,M,A*11
$GPGLL,5448.6054,S,06818.0139,W,220721,A*27
$IIXDR,C,0.0,C,ID1,H,0,P,ID2,P,0.000,B,ID3*49
$GPHDT,289.3,T*35
$GPVTG,239.6,T,227.1,M,0.0,N,0.0,K*46
$GPZDA,220722,14,02,2020,00,00*48
$GPGGA,220722,5448.6054,S,06818.0139,W,1,12,1.4,30,M,,M,,*79
$IIMWV,307,R,12.6,M,A*11
$GPGLL,5448.6054,S,06818.0139,W,220722,A*24
$IIXDR,C,0.0,C,ID1,H,0,P,ID2,P,0.000,B,ID3*49
!AIVDM,1,1,,A,1:MBuP0vi:s7nGgPWvclI3Vd28=B,0*5B
$GPHDT,289.2,T*34
$GPVTG,237.2,T,224.7,M,0.0,N,0.0,K*49
$GPZDA,220723,14,02,2020,00,00*49
!AIVDM,1,1,,B,13e0ld002?K7b8iP`Bh4GkTd06hL,0*28
$GPGGA,220723,5448.6054,S,06818.0139,W,1,12,1.4,29,M,,M,,*70
$IIMWV,305,R,12.6,M,A*13
!AIVDM,1,1,,B,1:LR1R001nK9jtEPUhIbq``h08=h,0*27
$GPGLL,5448.6054,S,06818.0139,W,220723,A*25
$IIXDR,C,0.0,C,ID1,H,0,P,ID2,P,0.000,B,ID3*49
$GPHDT,289.2,T*34
!AIVDM,1,1,,B,1JLR1R001nK9jtEPUhIbq``h0000,0*0A
!AIVDM,1,1,,B,13a0RF001hK<:LGPTlE:nphh0D0C,0*73
!AIVDM,1,1,,B,1Ca0RF001hK<:LGPTlE:nphh0000,0*04
$GPVTG,232.3,T,219.8,M,0.0,N,0.0,K*4C
$GPZDA,220724,14,02,2020,00,00*4E
$GPGGA,220724,5448.6054,S,06818.0139,W,1,12,1.4,29,M,,M,,*77
$IIMWV,303,R,12.9,M,A*1A
$GPGLL,5448.6054,S,06818.0139,W,220724,A*22
!AIVDM,1,1,,A,33mOvJ001fK9>8MPV193u38d84hC,0*56
$IIXDR,C,0.0,C,ID1,H,0,P,ID2,P,0.000,B,ID3*49
$GPHDT,289.2,T*34
$GPVTG,231.4,T,218.9,M,0.0,N,0.0,K*48
$GPZDA,220725,14,02,2020,00,00*4F
!AIVDM,1,1,,B,4h6cnniv@WF7Hs7FrkP`vgi02<0C,0*03
!AIVDM,2,1,0,B,5:LR16D00000iOK?7V0L?7SV11:0L58<T622220o1`c:240Ht00000000000,0*4E
!AIVDM,2,2,0,B,00000000000,2*27
$GPGGA,220725,5448.6054,S,06818.0139,W,1,12,1.4,29,M,,M,,*76
$IIMWV,295,R,12.9,M,A*14
$GPGLL,5448.6054,S,06818.0139,W,220725,A*23
$IIXDR,C,0.0,C,ID1,H,0,P,ID2,P,0.000,B,ID3*49
$GPHDT,289.2,T*34
$GPVTG,226.6,T,214.1,M,0.0,N,0.0,K*48
$GPZDA,220726,14,02,2020,00,00*4C
$GPGGA,220726,5448.6054,S,06818.0139,W,1,12,1.4,29,M,,M,,*75
$IIMWV,297,R,12.2,M,A*1D
$GPGLL,5448.6054,S,06818.0139,W,220726,A*20
$IIXDR,C,0.0,C,ID1,H,0,P,ID2,P,0.000,B,ID3*49
!AIVDM,1,1,,A,1:M31v0P00s7ERoP`ofsA?vl26hL,0*46
$GPHDT,289.2,T*34
$GPVTG,226.6,T,214.1,M,0.0,N,0.0,K*48
$GPZDA,220727,14,02,2020,00,00*4D
$GPGGA,220727,5448.6054,S,06818.0139,W,1,12,1.4,29,M,,M,,*74
$IIMWV,281,R,11.2,M,A*19
$GPGLL,5448.6054,S,06818.0139,W,220727,A*21
$IIXDR,C,0.0,C,ID1,H,0,P,ID2,P,0.000,B,ID3*49
$GPHDT,289.2,T*34
!AIVDM,1,1,,B,Dh6cnniGP@fqJ`@fqMh@fp0,2*49
$GPVTG,227.8,T,215.3,M,0.0,N,0.0,K*44
$GPZDA,220728,14,02,2020,00,00*42
!AIVDM,1,1,,A,1:LQdQPP00K7Ej=P`ojI=Ovp2<0?,0*62
!AIVDM,1,1,,B,15A8RL0000K7GLQP`i7=Tq4j2h9q,0*5A
$GPGGA,220728,5448.6054,S,06818.0139,W,1,12,1.4,29,M,,M,,*7B
$IIMWV,288,R,10.1,M,A*12
$GPGLL,5448.6054,S,06818.0139,W,220728,A*2E
$IIXDR,C,0.0,C,ID1,H,0,P,ID2,P,0.000,B,ID3*49
!AIVDM,1,1,,B,1EA8RL0000K7GLQP`i7=Tq4j2000,0*3A
$GPHDT,289.3,T*35
$GPVTG,227.0,T,214.5,M,0.0,N,0.0,K*4B
$GPZDA,220729,14,02,2020,00,00*43
$GPGGA,220729,5448.6054,S,06818.0139,W,1,12,1.4,29,M,,M,,*7A
$IIMWV,287,R,9.7,M,A*23
$GPGLL,5448.6054,S,06818.0139,W,220729,A*2F
$IIXDR,C,0.0,C,ID1,H,0,P,ID2,P,0.000,B,ID3*49
$GPHDT,289.3,T*35
!AIVDM,1,1,,A,4h6cnrAv@WF7Ms>MsUPRfl102<0=,0*03
!AIVDM,1,1,,A,13e0ld002@K7bFqP`BE4H3Tr08Ab,0*57
$GPVTG,227.7,T,215.2,M,0.0,N,0.0,K*4A
$GPZDA,220730,14,02,2020,00,00*4B
$GPGGA,220730,5448.6054,S,06818.0139,W,1,12,1.4,29,M,,M,,*72
$IIMWV,295,R,10.0,M,A*1F
$GPGLL,5448.6054,S,06818.0139,W,220730,A*27
$IIXDR,C,0.0,C,ID1,H,0,P,ID2,P,0.000,B,ID3*49
$GPHDT,289.3,T*35
!AIVDM,1,1,,A,B3HnSU000fioVCH9?pw:gwgUoP06,0*5A
$GPVTG,225.8,T,213.3,M,0.0,N,0.0,K*40
$GPZDA,220731,14,02,2020,00,00*4A
!AIVDM,1,1,,B,1D4UN=0vAhK>wQIPORa48S>v0000,0*0C
$GPGGA,220731,5448.6054,S,06818.0139,W,1,12,1.4,29,M,,M,,*73
$IIMWV,296,R,10.9,M,A*15
!AIVDM,1,1,,A,14`Utg@024K7WcIP`Src:Hnt0@BL,0*16
$GPGLL,5448.6054,S,06818.0139,W,220731,A*26
$IIXDR,C,0.0,C,ID1,H,0,P,ID2,P,0.000,B,ID3*49
$GPHDT,289.4,T*32
$GPVTG,227.4,T,214.9,M,0.0,N,0.0,K*43
$GPZDA,220732,14,02,2020,00,00*49
$GPGGA,220732,5448.6054,S,06818.0139,W,1,12,1.4,29,M,,M,,*70
$IIMWV,286,R,11.5,M,A*19
$GPGLL,5448.6054,S,06818.0139,W,220732,A*25
$IIXDR,C,0.0,C,ID1,H,0,P,ID2,P,0.000,B,ID3*49
$GPHDT,289.4,T*32
!AIVDM,1,1,,A,1:LR1R001nK9jeCPUhU:q`a20<0P,0*1D
$GPVTG,229.1,T,216.6,M,0.0,N,0.0,K*45
$GPZDA,220733,14,02,2020,00,00*48
$GPGGA,220733,5448.6054,S,06818.0139,W,1,12,1.4,29,M,,M,,*71
$IIMWV,281,R,11.5,M,A*1E
$GPGLL,5448.6054,S,06818.0139,W,220733,A*24
$IIXDR,C,0.0,C,ID1,H,0,P,ID2,P,0.000,B,ID3*49
$GPHDT,289.4,T*32
!AIVDM,1,1,,B,1:MBuP01i:s7nS3PWvETGSa226hL,0*1B
!AIVDM,1,1,,B,13mOvJ01AfK9>HePV0r3uS908@Cv,0*6B
$GPVTG,230.1,T,217.6,M,0.0,N,0.0,K*4C
$GPZDA,220734,14,02,2020,00,00*4F
$GPGGA,220734,5448.6054,S,06818.0139,W,1,12,1.4,29,M,,M,,*76
$IIMWV,291,R,11.9,M,A*13
$GPGLL,5448.6054,S,06818.0139,W,220734,A*23
$IIXDR,C,0.0,C,ID1,H,0,P,ID2,P,0.000,B,ID3*49
$GPHDT,289.5,T*33
!AIVDM,1,1,,B,3:M31v0P00s7ERsP`ofsh?w421u3,0*4E
$GPVTG,231.1,T,218.6,M,0.0,N,0.0,K*42
$GPZDA,220735,14,02,2020,00,00*4E
!AIVDM,1,1,,A,4h6cnniv@WF7Rs7FrkP`vgQ028De,0*74
$GPGGA,220735,5448.6054,S,06818.0139,W,1,12,1.4,29,M,,M,,*77
$IIMWV,293,R,12.2,M,A*19
$GPGLL,5448.6054,S,06818.0139,W,220735,A*22
$IIXDR,C,0.0,C,ID1,H,0,P,ID2,P,0.000,B,ID3*49
!AIVDM,1,1,,B,1:LR1ohP3Cs:W51PUM`:rgw62HDq,0*35
$GPHDT,289.5,T*33
!AIVDM,1,1,,B,1JLR1ohP3Cs:W51PUM`:rgw62000,0*08
!AIVDM,1,1,,B,13e0ld002@K7bS1P`Av4HCU60<0?,0*2C
$GPVTG,231.8,T,219.3,M,0.0,N,0.0,K*4F
$GPZDA,220736,14,02,2020,00,00*4D
$GPGGA,220736,5448.6054,S,06818.0139,W,1,12,1.4,29,M,,M,,*74
$IIMWV,292,R,12.1,M,A*1B
$GPGLL,5448.6054,S,06818.0139,W,220736,A*21
$IIXDR,C,0.0,C,ID1,H,0,P,ID2,P,0.000,B,ID3*49
$GPHDT,289.5,T*33
$GPVTG,233.2,T,220.7,M,0.0,N,0.0,K*49
$GPZDA,220737,14,02,2020,00,00*4C
!AIVDM,1,1,,A,Dh6cnniI4@fqL<@fqMh@fp0,2*7A
$GPGGA,220737,5448.6054,S,06818.0139,W,1,12,1.4,29,M,,M,,*75
$IIMWV,294,R,11.7,M,A*18
!AIVDM,1,1,,B,1:LQdQPP00K7EjUP`ojh0?w:2@Ev,0*5E
$GPGLL,5448.6054,S,06818.0139,W,220737,A*20
$IIXDR,C,0.0,C,ID1,H,0,P,ID2,P,0.000,B,ID3*49
$GPHDT,289.6,T*30
$GPVTG,232.7,T,220.2,M,0.0,N,0.0,K*48
$GPZDA,220738,14,02,2020,00,00*43
$GPGGA,220738,5448.6054,S,06818.0139,W,1,12,1.4,29,M,,M,,*7A
$IIMWV,287,R,11.4,M,A*19
$GPGLL,5448.6054,S,06818.0139,W,220738,A*2F
$IIXDR,C,0.0,C,ID1,H,0,P,ID2,P,0.000,B,ID3*49
$GPHDT,289.6,T*30
!AIVDM,1,1,,A,15A8RL0000K7GLQP`i7=Tq562`@4,0*30
!AIVDM,1,1,,A,1EA8RL0000K7GLQP`i7=Tq562000,0*64
$GPVTG,237.2,T,224.7,M,0.0,N,0.0,K*49
$GPZDA,220739,14,02,2020,00,00*42
$GPGGA,220739,5448.6054,S,06818.0139,W,1,12,1.4,29,M,,M,,*7B
$IIMWV,295,R,11.4,M,A*1A
$GPGLL,5448.6054,S,06818.0139,W,220739,A*2E
$IIXDR,C,0.0,C,ID1,H,0,P,ID2,P,0.000,B,ID3*49
$GPHDT,289.6,T*30
!AIVDM,1,1,,B,4h6cnrAv@WF7Ws>MsSPRfl1020S:,0*74
$GPVTG,239.2,T,226.7,M,0.0,N,0.0,K*45
$GPZDA,220740,14,02,2020,00,00*4C
!AIVDM,1,1,,B,BDn2Wg00B>k:Pup98QQ1Swl5n000,0*24
$GPGGA,220740,5448.6054,S,06818.0139,W,1,12,1.4,29,M,,M,,*75
$IIMWV,296,R,11.5,M,A*18
$GPGLL,5448.6054,S,06818.0139,W,220740,A*20
$IIXDR,C,0.0,C,ID1,H,0,P,ID2,P,0.000,B,ID3*49
$GPHDT,289.7,T*31
!AIVDM,1,1,,A,13e0ld002?K7be1P`AdTH3U@06hL,0*33
!AIVDM,1,1,,A,1D4UN=0vQhK>wiEPORBT9k=@0000,0*64
$GPVTG,242.1,T,229.6,M,0.0,N,0.0,K*44
$GPZDA,220741,14,02,2020,00,00*4D
!AIVDM,1,1,,B,14`Utg@024K7WHGP`TD;;poB0D0B,0*2F
$GPGGA,220741,5448.6054,S,06818.0139,W,1,12,1.4,29,M,,M,,*74
$IIMWV,302,R,11.8,M,A*19
$GPGLL,5448.6054,S,06818.0139,W,220741,A*21
$IIXDR,C,0.0,C,ID1,H,0,P,ID2,P,0.000,B,ID3*49
$GPHDT,289.7,T*31
!AIVDM,1,1,,B,1JLQd90P01K=g;EPStsScwwB2000,0*64
$GPVTG,243.6,T,231.1,M,0.0,N,0.0,K*4C
$GPZDA,220742,14,02,2020,00,00*4E
$GPGGA,220742,5448.6054,S,06818.0139,W,1,12,1.4,29,M,,M,,*77
$IIMWV,298,R,12.2,M,A*12
$GPGLL,5448.6054,S,06818.0139,W,220742,A*22
$IIXDR,C,0.0,C,ID1,H,0,P,ID2,P,0.000,B,ID3*49
$GPHDT,289.7,T*31
!AIVDM,1,1,,B,1:LR1R001nK9jKWPUhhrppWF0@I:,0*6D
$GPVTG,245.5,T,233.0,M,0.0,N,0.0,K*4A
$GPZDA,220743,14,02,2020,00,00*4F
$GPGGA,220743,5448.6054,S,06818.0139,W,1,12,1.4,29,M,,M,,*76
$IIMWV,293,R,12.5,M,A*1E
$GPGLL,5448.6054,S,06818.0139,W,220743,A*23
$IIXDR,C,0.0,C,ID1,H,0,P,ID2,P,0.000,B,ID3*49
$GPHDT,289.7,T*31
$GPVTG,241.1,T,228.6,M,0.0,N,0.0,K*46
!AIVDM,1,1,,B,13a0RF001hK<9kuPTlfJpHiH06hL,0*14
$GPZDA,220744,14,02,2020,00,00*48
$GPGGA,220744,5448.6054,S,06818.0139,W,1,12,1.4,29,M,,M,,*71
!AIVDM,1,1,,B,1Ca0RF001hK<9kuPTlfJpHiH0000,0*46
$IIMWV,301,R,12.6,M,A*17
$GPGLL,5448.6054,S,06818.0139,W,220744,A*24
$IIXDR,C,0.0,C,ID1,H,0,P,ID2,P,0.000,B,ID3*49
$GPHDT,289.7,T*31
$GPVTG,240.1,T,227.6,M,0.0,N,0.0,K*48
$GPZDA,220745,14,02,2020,00,00*49
!AIVDM,1,1,,B,4h6cnniv@WF7ds7FriP`vgQ02D0C,0*6D
$GPGGA,220745,5448.6054,S,06818.0139,W,1,12,1.4,29,M,,M,,*70
$IIMWV,293,R,12.6,M,A*1D
$GPGLL,5448.6054,S,06818.0139,W,220745,A*25
$IIXDR,C,0.0,C,ID1,H,0,P,ID2,P,0.000,B,ID3*49
$GPHDT,289.7,T*31
!AIVDM,1,1,,A,1:M31v0P00s7ERwP`ogd??wJ28Jw,0*06
$GPVTG,238.9,T,226.4,M,0.0,N,0.0,K*4C
$GPZDA,220746,14,02,2020,00,00*4A
$GPGGA,220746,5448.6054,S,06818.0140,W,1,12,1.4,29,M,,M,,*7D
$IIMWV,290,R,12.2,M,A*1A
$GPGLL,5448.6054,S,06818.0140,W,220746,A*28
$IIXDR,C,0.0,C,ID1,H,0,P,ID2,P,0.000,B,ID3*49
$GPHDT,289.7,T*31
$GPVTG,240.3,T,227.8,M,0.0,N,0.0,K*44
$GPZDA,220747,14,02,2020,00,00*4B
!AIVDM,1,1,,A,1:LQdQPP00K7EjCP`ol;F?wN20Rf,0*6B
$GPGGA,220747,5448.6054,S,06818.0140,W,1,12,1.4,29,M,,M,,*7C
$IIMWV,294,R,11.3,M,A*1C
!AIVDM,1,1,,B,15A8RL0wP0K7GLQP`i7=Tq5H2PSr,0*0F
!AIVDM,1,1,,B,13e0ld002@K7bs1P`AC4ESUN08Kn,0*72
$GPGLL,5448.6054,S,06818.0140,W,220747,A*29
$IIXDR,C,0.0,C,ID1,H,0,P,ID2,P,0.000,B,ID3*49
$GPHDT,289.7,T*31
!AIVDM,1,1,,B,1EA8RL0wP0K7GLQP`i7=Tq5H2000,0*3E
!AIVDM,1,1,,B,Dh6cnnh``@fpch@fpfp@fp0,2*4D
$GPVTG,237.6,T,225.1,M,0.0,N,0.0,K*4A
$GPZDA,220748,14,02,2020,00,00*44
$GPGGA,220748,5448.6054,S,06818.0140,W,1,12,1.4,29,M,,M,,*73
$IIMWV,296,R,10.8,M,A*14
$GPGLL,5448.6054,S,06818.0140,W,220748,A*26
!AIVDM,2,1,1,B,5:M31v400000k89b220L>37G60p4QDDj0QD50V0o10?4140Ht3h000000000,0*14
!AIVDM,2,2,1,B,00000000008,2*2E
$IIXDR,C,0.0,C,ID1,H,0,P,ID2,P,0.000,B,ID3*49
$GPHDT,289.6,T*30
$GPVTG,235.6,T,223.1,M,0.0,N,0.0,K*4E
$GPZDA,220749,14,02,2020,00,00*45
$GPGGA,220749,5448.6054,S,06818.0140,W,1,12,1.4,29,M,,M,,*72
