$GPVTG,230.7,T,219.6,M,8.7,N,16.1,K*7D
$GPZDA,003158,30,01,2020,00,00*45
$GPGGA,003158,6223.6260,S,05848.1260,W,1,11,1.7,39,M,,M,,*7D
$GPGLL,6223.6260,S,05848.1260,W,003158,A*29
$GPHDT,233.6,T*31
$GPVTG,231.4,T,220.3,M,8.5,N,15.7,K*77
$GPZDA,003159,30,01,2020,00,00*44
$GPGGA,003159,6223.6275,S,05848.1300,W,1,11,1.7,39,M,,M,,*7F
$GPGLL,6223.6275,S,05848.1300,W,003159,A*2B
$GPHDT,233.3,T*34
$GPVTG,232.1,T,221.0,M,8.4,N,15.5,K*70
$GPZDA,003200,30,01,2020,00,00*4B
$GPGGA,003200,6223.6289,S,05848.1340,W,1,11,1.7,39,M,,M,,*77
$GPGLL,6223.6289,S,05848.1340,W,003200,A*23
$GPHDT,232.7,T*31
$GPVTG,232.6,T,221.5,M,8.4,N,15.5,K*72
$GPZDA,003201,30,01,2020,00,00*4A
$GPGGA,003201,6223.6304,S,05848.1380,W,1,11,1.7,39,M,,M,,*7E
$GPGLL,6223.6304,S,05848.1380,W,003201,A*2A
$GPHDT,232.1,T*37
$GPVTG,232.8,T,221.7,M,8.4,N,15.5,K*7E
$GPZDA,003202,30,01,2020,00,00*49
$GPGGA,003202,6223.6318,S,05848.1420,W,1,11,1.7,39,M,,M,,*7D
$GPGLL,6223.6318,S,05848.1420,W,003202,A*29
$GPHDT,231.7,T*32
$GPVTG,232.8,T,221.7,M,8.5,N,15.7,K*7D
$GPZDA,003203,30,01,2020,00,00*48
$GPGGA,003203,6223.6332,S,05848.1460,W,1,11,1.7,39,M,,M,,*70
$GPGLL,6223.6332,S,05848.1460,W,003203,A*24
$GPHDT,231.4,T*31
$GPVTG,232.5,T,221.4,M,8.5,N,15.7,K*73
$GPZDA,003204,30,01,2020,00,00*4F
$GPGGA,003204,6223.6347,S,05848.1500,W,1,11,1.7,39,M,,M,,*72
$GPGLL,6223.6347,S,05848.1500,W,003204,A*26
$GPHDT,231.4,T*31
$GPVTG,231.9,T,220.8,M,8.6,N,15.9,K*7C
$GPZDA,003205,30,01,2020,00,00*4E
$GPGGA,003205,6223.6361,S,05848.1539,W,1,11,1.7,39,M,,M,,*7D
$GPGLL,6223.6361,S,05848.1539,W,003205,A*29
$GPHDT,231.9,T*3C
$GPVTG,231.3,T,220.2,M,8.7,N,16.1,K*76
$GPZDA,003206,30,01,2020,00,00*4D
$GPGGA,003206,6223.6375,S,05848.1579,W,1,11,1.7,39,M,,M,,*7F
$GPGLL,6223.6375,S,05848.1579,W,003206,A*2B
$GPHDT,232.6,T*30
$GPVTG,230.9,T,219.8,M,8.7,N,16.1,K*7D
$GPZDA,003207,30,01,2020,00,00*4C
$GPGGA,003207,6223.6390,S,05848.1619,W,1,11,1.7,39,M,,M,,*70
$GPGLL,6223.6390,S,05848.1619,W,003207,A*24
$GPHDT,233.1,T*36
$GPVTG,231.0,T,219.9,M,8.7,N,16.1,K*74
$GPZDA,003208,30,01,2020,00,00*43
$GPGGA,003208,6223.6405,S,05848.1659,W,1,11,1.7,39,M,,M,,*70
$GPGLL,6223.6405,S,05848.1659,W,003208,A*24
$GPHDT,233.4,T*33
$GPVTG,231.4,T,220.3,M,8.6,N,15.9,K*7A
$GPZDA,003209,30,01,2020,00,00*42
$GPGGA,003209,6223.6419,S,05848.1699,W,1,11,1.7,39,M,,M,,*70
$GPGLL,6223.6419,S,05848.1699,W,003209,A*24
$GPHDT,233.5,T*32
$GPVTG,231.9,T,220.8,M,8.6,N,15.9,K*7C
$GPZDA,003210,30,01,2020,00,00*4A
$GPGGA,003210,6223.6434,S,05848.1739,W,1,11,1.7,39,M,,M,,*7C
$GPGLL,6223.6434,S,05848.1739,W,003210,A*28
$GPHDT,233.5,T*32
$GPVTG,232.3,T,221.2,M,8.5,N,15.7,K*73
$GPZDA,003211,30,01,2020,00,00*4B
$GPGGA,003211,6223.6448,S,05848.1779,W,1,11,1.7,39,M,,M,,*72
$GPGLL,6223.6448,S,05848.1779,W,003211,A*26
$GPHDT,233.3,T*34
$GPVTG,232.4,T,221.3,M,8.5,N,15.7,K*75
$GPZDA,003212,30,01,2020,00,00*48
$GPGGA,003212,6223.6462,S,05848.1819,W,1,11,1.7,39,M,,M,,*70
$GPGLL,6223.6462,S,05848.1819,W,003212,A*24
$GPHDT,232.9,T*3F
$GPVTG,232.2,T,221.1,M,8.4,N,15.5,K*72
$GPZDA,003213,30,01,2020,00,00*49
$GPGGA,003213,6223.6477,S,05848.1859,W,1,11,1.7,39,M,,M,,*71
$GPGLL,6223.6477,S,05848.1859,W,003213,A*25
$GPHDT,232.3,T*35
$GPVTG,232.0,T,220.9,M,8.4,N,15.5,K*79
$GPZDA,003214,30,01,2020,00,00*4E
$GPGGA,003214,6223.6491,S,05848.1899,W,1,11,1.7,39,M,,M,,*72
$GPGLL,6223.6491,S,05848.1899,W,003214,A*26
$GPHDT,231.8,T*3D
$GPVTG,231.8,T,220.7,M,8.5,N,15.7,K*7F
$GPZDA,003215,30,01,2020,00,00*4F
$GPGGA,003215,6223.6506,S,05848.1939,W,1,11,1.7,39,M,,M,,*77
$GPGLL,6223.6506,S,05848.1939,W,003215,A*23
$GPHDT,231.4,T*31
$GPVTG,231.7,T,220.6,M,8.6,N,15.9,K*7C
$GPZDA,003216,30,01,2020,00,00*4C
$GPGGA,003216,6223.6520,S,05848.1979,W,1,11,1.7,39,M,,M,,*74
$GPGLL,6223.6520,S,05848.1979,W,003216,A*20
$GPHDT,231.4,T*31
$GPVTG,231.7,T,220.6,M,8.6,N,15.9,K*7C
$GPZDA,003217,30,01,2020,00,00*4D
$GPGGA,003217,6223.6535,S,05848.2019,W,1,11,1.7,39,M,,M,,*7D
$GPGLL,6223.6535,S,05848.2019,W,003217,A*29
$GPHDT,231.8,T*3D
$GPVTG,231.8,T,220.7,M,8.6,N,15.9,K*72
$GPZDA,003218,30,01,2020,00,00*42
$GPGGA,003218,6223.6549,S,05848.2059,W,1,11,1.7,39,M,,M,,*7D
$GPGLL,6223.6549,S,05848.2059,W,003218,A*29
$GPHDT,232.4,T*32
